[{"name":"Superfish","total_money_raised":19300000,"country_code":"USA","state_code":"CA","category_code":"search","zip_code":"94303","latitude":37.414271,"longitude":-122.134666,"geopoint":{"type":"Point","coordinates":[-122.134666,37.414271]}},{"name":"PLYmedia","total_money_raised":5700000,"country_code":"USA","state_code":"CA","category_code":"advertising","zip_code":"94301","latitude":37.400821,"longitude":-122.131383,"geopoint":{"type":"Point","coordinates":[-122.131383,37.400821]}},{"name":"Ponte Solutions","total_money_raised":7500000,"country_code":"USA","state_code":"CA","category_code":"software","zip_code":"94040","latitude":37.400945,"longitude":-122.111318,"geopoint":{"type":"Point","coordinates":[-122.111318,37.400945]}},{"name":"MessageCast","total_money_raised":1500000,"country_code":"USA","state_code":"CA","category_code":"web","zip_code":"94306","latitude":37.42583,"longitude":-122.123092,"geopoint":{"type":"Point","coordinates":[-122.123092,37.42583]}},{"name":"Funny Or Die","total_money_raised":18000000,"country_code":"USA","state_code":"CA","category_code":"games_video","zip_code":"94401","latitude":37.421621,"longitude":-122.137444,"geopoint":{"type":"Point","coordinates":[-122.137444,37.421621]}},{"name":"Hyperic","total_money_raised":9900000,"country_code":"USA","state_code":"CA","category_code":"software","zip_code":"94304","latitude":37.4027811,"longitude":-122.1441615,"geopoint":{"type":"Point","coordinates":[-122.1441615,37.4027811]}},{"name":"Danger","total_money_raised":118000000,"country_code":"USA","state_code":"CA","category_code":"mobile","zip_code":"94306","latitude":37.425168,"longitude":-122.136248,"geopoint":{"type":"Point","coordinates":[-122.136248,37.425168]}},{"name":"Cooliris","total_money_raised":28100000,"country_code":"USA","state_code":"CA","category_code":"web","zip_code":"94306","latitude":37.421447,"longitude":-122.141604,"geopoint":{"type":"Point","coordinates":[-122.141604,37.421447]}},{"name":"VMware","total_money_raised":369000000,"country_code":"USA","state_code":"CA","category_code":"software","zip_code":"94304","latitude":37.403315,"longitude":-122.145981,"geopoint":{"type":"Point","coordinates":[-122.145981,37.403315]}},{"name":"Buysight","total_money_raised":24000000,"country_code":"USA","state_code":"CA","category_code":"advertising","zip_code":"94306","latitude":37.425359,"longitude":-122.1389633,"geopoint":{"type":"Point","coordinates":[-122.1389633,37.425359]}},{"name":"Neopolitan Networks","total_money_raised":3170000,"country_code":"USA","state_code":"CA","category_code":"web","zip_code":"94306","latitude":37.426316,"longitude":-122.141082,"geopoint":{"type":"Point","coordinates":[-122.141082,37.426316]}},{"name":"RealTravel","total_money_raised":1800000,"country_code":"USA","state_code":"CA","category_code":"network_hosting","zip_code":"94022","latitude":37.395335,"longitude":-122.102339,"geopoint":{"type":"Point","coordinates":[-122.102339,37.395335]}},{"name":"RealTravel","total_money_raised":1800000,"country_code":"USA","state_code":"CA","category_code":"network_hosting","zip_code":"94022","latitude":37.395335,"longitude":-122.102339,"geopoint":{"type":"Point","coordinates":[-122.102339,37.395335]}},{"name":"Delphix","total_money_raised":44500000,"country_code":"USA","state_code":"CA","category_code":"software","zip_code":"","latitude":37.4239496,"longitude":-122.1011815,"geopoint":{"type":"Point","coordinates":[-122.1011815,37.4239496]}},{"name":"Box","total_money_raised":409000000,"country_code":"USA","state_code":"CA","category_code":"network_hosting","zip_code":"94022","latitude":37.425801,"longitude":-122.143701,"geopoint":{"type":"Point","coordinates":[-122.143701,37.425801]}},{"name":"GenieTown","total_money_raised":2000000,"country_code":"USA","state_code":"CA","category_code":"search","zip_code":"94306","latitude":37.425773,"longitude":-122.144271,"geopoint":{"type":"Point","coordinates":[-122.144271,37.425773]}},{"name":"Apptera","total_money_raised":30200000,"country_code":"USA","state_code":"CA","category_code":"advertising","zip_code":"94303","latitude":37.4224243,"longitude":-122.0988161,"geopoint":{"type":"Point","coordinates":[-122.0988161,37.4224243]}},{"name":"Qwaq","total_money_raised":7000000,"country_code":"USA","state_code":"CA","category_code":"web","zip_code":"94306","latitude":37.425591,"longitude":-122.145416,"geopoint":{"type":"Point","coordinates":[-122.145416,37.425591]}},{"name":"Punch Entertainment","total_money_raised":1200000,"country_code":"USA","state_code":"CA","category_code":"software","zip_code":"94303","latitude":37.4233698,"longitude":-122.0986859,"geopoint":{"type":"Point","coordinates":[-122.0986859,37.4233698]}},{"name":"SnapTell","total_money_raised":4000000,"country_code":"USA","state_code":"CA","category_code":"software","zip_code":"94306","latitude":37.433414,"longitude":-122.128772,"geopoint":{"type":"Point","coordinates":[-122.128772,37.433414]}},{"name":"SayNow","total_money_raised":7500000,"country_code":"USA","state_code":"CA","category_code":"mobile","zip_code":"94301","latitude":37.42746,"longitude":-122.143915,"geopoint":{"type":"Point","coordinates":[-122.143915,37.42746]}},{"name":"PodTech","total_money_raised":7500000,"country_code":"USA","state_code":"CA","category_code":"games_video","zip_code":"94304","latitude":37.408256,"longitude":-122.154176,"geopoint":{"type":"Point","coordinates":[-122.154176,37.408256]}},{"name":"NearbyNow","total_money_raised":19300000,"country_code":"USA","state_code":"CA","category_code":"web","zip_code":"94040","latitude":37.393836,"longitude":-122.099454,"geopoint":{"type":"Point","coordinates":[-122.099454,37.393836]}},{"name":"Collarity","total_money_raised":12200000,"country_code":"USA","state_code":"CA","category_code":"advertising","zip_code":"94304","latitude":37.407752,"longitude":-122.154565,"geopoint":{"type":"Point","coordinates":[-122.154565,37.407752]}},{"name":"Doostang","total_money_raised":5750000,"country_code":"USA","state_code":"CA","category_code":"web","zip_code":"94306","latitude":37.427235,"longitude":-122.145783,"geopoint":{"type":"Point","coordinates":[-122.145783,37.427235]}},{"name":"Jibe Mobile","total_money_raised":9100000,"country_code":"USA","state_code":"CA","category_code":"mobile","zip_code":"94043","latitude":37.4186097,"longitude":-122.0937686,"geopoint":{"type":"Point","coordinates":[-122.0937686,37.4186097]}},{"name":"AdYouNet","total_money_raised":1400000,"country_code":"USA","state_code":"CA","category_code":"advertising","zip_code":"94303","latitude":37.431941,"longitude":-122.103076,"geopoint":{"type":"Point","coordinates":[-122.103076,37.431941]}},{"name":"Sensory Networks","total_money_raised":17400000,"country_code":"USA","state_code":"CA","category_code":"web","zip_code":"94043","latitude":37.430025,"longitude":-122.09998,"geopoint":{"type":"Point","coordinates":[-122.09998,37.430025]}},{"name":"Trovix","total_money_raised":18300000,"country_code":"USA","state_code":"CA","category_code":"search","zip_code":"94043","latitude":37.420428,"longitude":-122.090769,"geopoint":{"type":"Point","coordinates":[-122.090769,37.420428]}},{"name":"PeerMe","total_money_raised":5000000,"country_code":"USA","state_code":"CA","category_code":"games_video","zip_code":"94043","latitude":37.419819,"longitude":-122.090188,"geopoint":{"type":"Point","coordinates":[-122.090188,37.419819]}},{"name":"Adaptive Planning","total_money_raised":84500000,"country_code":"USA","state_code":"CA","category_code":"software","zip_code":"94043","latitude":37.4192309,"longitude":-122.0887097,"geopoint":{"type":"Point","coordinates":[-122.0887097,37.4192309]}},{"name":"Gridstore","total_money_raised":25000000,"country_code":"USA","state_code":"CA","category_code":"network_hosting","zip_code":"94043","latitude":37.4189073,"longitude":-122.0884286,"geopoint":{"type":"Point","coordinates":[-122.0884286,37.4189073]}},{"name":"Helpstream","total_money_raised":8600000,"country_code":"USA","state_code":"CA","category_code":"web","zip_code":"94043","latitude":37.418262,"longitude":-122.087859,"geopoint":{"type":"Point","coordinates":[-122.087859,37.418262]}},{"name":"Helpstream","total_money_raised":8600000,"country_code":"USA","state_code":"CA","category_code":"web","zip_code":"94043","latitude":37.418262,"longitude":-122.087859,"geopoint":{"type":"Point","coordinates":[-122.087859,37.418262]}},{"name":"Cognitive Match","total_money_raised":10200000,"country_code":"USA","state_code":"CA","category_code":"advertising","zip_code":"94402","latitude":37.380653,"longitude":-122.1156934,"geopoint":{"type":"Point","coordinates":[-122.1156934,37.380653]}},{"name":"Mozilla","total_money_raised":2300000,"country_code":"USA","state_code":"CA","category_code":"web","zip_code":"94041","latitude":37.418491,"longitude":-122.08744,"geopoint":{"type":"Point","coordinates":[-122.08744,37.418491]}},{"name":"Jajah","total_money_raised":33000000,"country_code":"USA","state_code":"CA","category_code":"mobile","zip_code":"94043","latitude":37.4233896,"longitude":-122.0899512,"geopoint":{"type":"Point","coordinates":[-122.0899512,37.4233896]}},{"name":"Verix","total_money_raised":12700000,"country_code":"USA","state_code":"CA","category_code":"software","zip_code":"94043","latitude":37.4187022,"longitude":-122.0874129,"geopoint":{"type":"Point","coordinates":[-122.0874129,37.4187022]}},{"name":"Crowd Science","total_money_raised":2000000,"country_code":"USA","state_code":"CA","category_code":"web","zip_code":"95110","latitude":37.419041,"longitude":-122.087471,"geopoint":{"type":"Point","coordinates":[-122.087471,37.419041]}},{"name":"TVU Networks","total_money_raised":10100000,"country_code":"USA","state_code":"CA","category_code":"ecommerce","zip_code":"94043","latitude":37.416349,"longitude":-122.085021,"geopoint":{"type":"Point","coordinates":[-122.085021,37.416349]}},{"name":"Fanminder","total_money_raised":1000000,"country_code":"USA","state_code":"CA","category_code":"advertising","zip_code":"94107","latitude":37.3792486,"longitude":-122.1151274,"geopoint":{"type":"Point","coordinates":[-122.1151274,37.3792486]}},{"name":"Google","total_money_raised":555000000,"country_code":"USA","state_code":"CA","category_code":"search","zip_code":"","latitude":37.421972,"longitude":-122.084143,"geopoint":{"type":"Point","coordinates":[-122.084143,37.421972]}},{"name":"Tellme","total_money_raised":6000000,"country_code":"USA","state_code":"CA","category_code":"mobile","zip_code":"94041","latitude":37.396062,"longitude":-122.084505,"geopoint":{"type":"Point","coordinates":[-122.084505,37.396062]}},{"name":"Carrier IQ","total_money_raised":42000000,"country_code":"USA","state_code":"CA","category_code":"mobile","zip_code":"94041","latitude":37.3955775,"longitude":-122.0833286,"geopoint":{"type":"Point","coordinates":[-122.0833286,37.3955775]}},{"name":"Raptr","total_money_raised":27000000,"country_code":"USA","state_code":"CA","category_code":"games_video","zip_code":"94043","latitude":37.40384,"longitude":-122.07808,"geopoint":{"type":"Point","coordinates":[-122.07808,37.40384]}},{"name":"MetricStream","total_money_raised":65000000,"country_code":"USA","state_code":"CA","category_code":"software","zip_code":"94303","latitude":37.446535,"longitude":-122.118794,"geopoint":{"type":"Point","coordinates":[-122.118794,37.446535]}},{"name":"Zecter","total_money_raised":2520000,"country_code":"USA","state_code":"CA","category_code":"network_hosting","zip_code":"94010","latitude":37.384756,"longitude":-122.087712,"geopoint":{"type":"Point","coordinates":[-122.087712,37.384756]}},{"name":"Simply Hired","total_money_raised":22300000,"country_code":"USA","state_code":"CA","category_code":"search","zip_code":"94085","latitude":37.4219165,"longitude":-122.0780632,"geopoint":{"type":"Point","coordinates":[-122.0780632,37.4219165]}},{"name":"Apprion","total_money_raised":27500000,"country_code":"USA","state_code":"CA","category_code":"mobile","zip_code":"94043","latitude":37.417485,"longitude":-122.075789,"geopoint":{"type":"Point","coordinates":[-122.075789,37.417485]}},{"name":"YOUnite","total_money_raised":1300000,"country_code":"USA","state_code":"CA","category_code":"web","zip_code":"94041","latitude":37.388077,"longitude":-122.08316,"geopoint":{"type":"Point","coordinates":[-122.08316,37.388077]}},{"name":"PostPath","total_money_raised":24300000,"country_code":"USA","state_code":"CA","category_code":"web","zip_code":"94041","latitude":37.390501,"longitude":-122.081151,"geopoint":{"type":"Point","coordinates":[-122.081151,37.390501]}},{"name":"PostPath","total_money_raised":24300000,"country_code":"USA","state_code":"CA","category_code":"web","zip_code":"94041","latitude":37.390501,"longitude":-122.081151,"geopoint":{"type":"Point","coordinates":[-122.081151,37.390501]}},{"name":"WSO2","total_money_raised":20500000,"country_code":"USA","state_code":"CA","category_code":"software","zip_code":"94306","latitude":37.390918,"longitude":-122.080843,"geopoint":{"type":"Point","coordinates":[-122.080843,37.390918]}},{"name":"BooRah","total_money_raised":1500000,"country_code":"USA","state_code":"CA","category_code":"search","zip_code":"94041","latitude":37.390918,"longitude":-122.080843,"geopoint":{"type":"Point","coordinates":[-122.080843,37.390918]}},{"name":"Centrify","total_money_raised":52000000,"country_code":"USA","state_code":"CA","category_code":"network_hosting","zip_code":"94085","latitude":37.390918,"longitude":-122.080843,"geopoint":{"type":"Point","coordinates":[-122.080843,37.390918]}},{"name":"Centrify","total_money_raised":52000000,"country_code":"USA","state_code":"CA","category_code":"network_hosting","zip_code":"94085","latitude":37.390918,"longitude":-122.080843,"geopoint":{"type":"Point","coordinates":[-122.080843,37.390918]}},{"name":"Ustream","total_money_raised":60100000,"country_code":"USA","state_code":"CA","category_code":"games_video","zip_code":"94107","latitude":37.392936,"longitude":-122.07948,"geopoint":{"type":"Point","coordinates":[-122.07948,37.392936]}},{"name":"Meebo","total_money_raised":70000000,"country_code":"USA","state_code":"CA","category_code":"web","zip_code":"94041","latitude":37.393679,"longitude":-122.079017,"geopoint":{"type":"Point","coordinates":[-122.079017,37.393679]}},{"name":"NeoEdge Networks","total_money_raised":10000000,"country_code":"USA","state_code":"CA","category_code":"advertising","zip_code":"94041","latitude":37.393679,"longitude":-122.079017,"geopoint":{"type":"Point","coordinates":[-122.079017,37.393679]}},{"name":"Kabam","total_money_raised":125000000,"country_code":"USA","state_code":"CA","category_code":"games_video","zip_code":"94107","latitude":37.3944561,"longitude":-122.0785314,"geopoint":{"type":"Point","coordinates":[-122.0785314,37.3944561]}},{"name":"CompanyLoop","total_money_raised":5000000,"country_code":"USA","state_code":"CA","category_code":"network_hosting","zip_code":"94041","latitude":37.394456,"longitude":-122.078531,"geopoint":{"type":"Point","coordinates":[-122.078531,37.394456]}},{"name":"Tangler","total_money_raised":1500000,"country_code":"USA","state_code":"CA","category_code":"web","zip_code":"94040","latitude":37.386665,"longitude":-122.084171,"geopoint":{"type":"Point","coordinates":[-122.084171,37.386665]}},{"name":"Ribbit","total_money_raised":11000000,"country_code":"USA","state_code":"CA","category_code":"mobile","zip_code":"94040","latitude":37.386665,"longitude":-122.084171,"geopoint":{"type":"Point","coordinates":[-122.084171,37.386665]}},{"name":"SearchMe","total_money_raised":43600000,"country_code":"USA","state_code":"CA","category_code":"search","zip_code":"94040","latitude":37.386665,"longitude":-122.084171,"geopoint":{"type":"Point","coordinates":[-122.084171,37.386665]}},{"name":"TrialPay","total_money_raised":55800000,"country_code":"USA","state_code":"CA","category_code":"advertising","zip_code":"94041","latitude":37.388095,"longitude":-122.08276,"geopoint":{"type":"Point","coordinates":[-122.08276,37.388095]}},{"name":"Polyvore","total_money_raised":22100000,"country_code":"USA","state_code":"CA","category_code":"web","zip_code":"","latitude":37.386175,"longitude":-122.083487,"geopoint":{"type":"Point","coordinates":[-122.083487,37.386175]}},{"name":"Topix","total_money_raised":15000000,"country_code":"USA","state_code":"CA","category_code":"web","zip_code":"94301","latitude":37.44296,"longitude":-122.151198,"geopoint":{"type":"Point","coordinates":[-122.151198,37.44296]}},{"name":"Backblaze","total_money_raised":5000000,"country_code":"USA","state_code":"CA","category_code":"software","zip_code":"94301","latitude":37.44296,"longitude":-122.151198,"geopoint":{"type":"Point","coordinates":[-122.151198,37.44296]}},{"name":"Hooja","total_money_raised":1250000,"country_code":"USA","state_code":"CA","category_code":"mobile","zip_code":"","latitude":37.437328,"longitude":-122.159928,"geopoint":{"type":"Point","coordinates":[-122.159928,37.437328]}},{"name":"JotSpot","total_money_raised":5200000,"country_code":"USA","state_code":"CA","category_code":"web","zip_code":"","latitude":37.437328,"longitude":-122.159928,"geopoint":{"type":"Point","coordinates":[-122.159928,37.437328]}},{"name":"Metacafe","total_money_raised":50000000,"country_code":"USA","state_code":"CA","category_code":"games_video","zip_code":"94107","latitude":37.437328,"longitude":-122.159928,"geopoint":{"type":"Point","coordinates":[-122.159928,37.437328]}},{"name":"Terabitz","total_money_raised":10000000,"country_code":"USA","state_code":"CA","category_code":"web","zip_code":"94306-2123","latitude":37.437328,"longitude":-122.159928,"geopoint":{"type":"Point","coordinates":[-122.159928,37.437328]}},{"name":"Gecko Audio","total_money_raised":3000000,"country_code":"USA","state_code":"CA","category_code":"software","zip_code":"","latitude":37.437328,"longitude":-122.159928,"geopoint":{"type":"Point","coordinates":[-122.159928,37.437328]}},{"name":"Moxsie","total_money_raised":4700000,"country_code":"USA","state_code":"CA","category_code":"ecommerce","zip_code":"","latitude":37.437328,"longitude":-122.159928,"geopoint":{"type":"Point","coordinates":[-122.159928,37.437328]}},{"name":"Playdom","total_money_raised":76000000,"country_code":"USA","state_code":"CA","category_code":"games_video","zip_code":"94306","latitude":37.393536,"longitude":-122.076747,"geopoint":{"type":"Point","coordinates":[-122.076747,37.393536]}},{"name":"Jasper Design Automation","total_money_raised":9130000,"country_code":"USA","state_code":"CA","category_code":"software","zip_code":"94041","latitude":37.393536,"longitude":-122.076747,"geopoint":{"type":"Point","coordinates":[-122.076747,37.393536]}},{"name":"Krillion","total_money_raised":9650000,"country_code":"USA","state_code":"CA","category_code":"web","zip_code":"94041","latitude":37.391727,"longitude":-122.077597,"geopoint":{"type":"Point","coordinates":[-122.077597,37.391727]}},{"name":"Aloqa","total_money_raised":1500000,"country_code":"USA","state_code":"CA","category_code":"mobile","zip_code":"94301","latitude":37.43938,"longitude":-122.158804,"geopoint":{"type":"Point","coordinates":[-122.158804,37.43938]}},{"name":"Plastic Jungle","total_money_raised":23400000,"country_code":"USA","state_code":"CA","category_code":"ecommerce","zip_code":"94401","latitude":37.400465,"longitude":-122.073003,"geopoint":{"type":"Point","coordinates":[-122.073003,37.400465]}},{"name":"PicksPal","total_money_raised":15000000,"country_code":"USA","state_code":"CA","category_code":"games_video","zip_code":null,"latitude":37.40047,"longitude":-122.072981,"geopoint":{"type":"Point","coordinates":[-122.072981,37.40047]}},{"name":"OurStory","total_money_raised":6300000,"country_code":"USA","state_code":"CA","category_code":"web","zip_code":null,"latitude":37.40047,"longitude":-122.072981,"geopoint":{"type":"Point","coordinates":[-122.072981,37.40047]}},{"name":"BitPass","total_money_raised":13300000,"country_code":"USA","state_code":"CA","category_code":"web","zip_code":"","latitude":37.40047,"longitude":-122.072981,"geopoint":{"type":"Point","coordinates":[-122.072981,37.40047]}},{"name":"Wink","total_money_raised":6200000,"country_code":"USA","state_code":"CA","category_code":"search","zip_code":"94041","latitude":37.40047,"longitude":-122.072981,"geopoint":{"type":"Point","coordinates":[-122.072981,37.40047]}},{"name":"Loopt","total_money_raised":32000000,"country_code":"USA","state_code":"CA","category_code":"mobile","zip_code":"94040","latitude":37.384717,"longitude":-122.081625,"geopoint":{"type":"Point","coordinates":[-122.081625,37.384717]}},{"name":"Become","total_money_raised":37200000,"country_code":"USA","state_code":"CA","category_code":"search","zip_code":"94086","latitude":37.424801,"longitude":-122.07259,"geopoint":{"type":"Point","coordinates":[-122.07259,37.424801]}},{"name":"IMVU","total_money_raised":29000000,"country_code":"USA","state_code":"CA","category_code":"web","zip_code":"94041","latitude":37.3927975,"longitude":-122.0727749,"geopoint":{"type":"Point","coordinates":[-122.0727749,37.3927975]}},{"name":"TheFind","total_money_raised":26000000,"country_code":"USA","state_code":"CA","category_code":"ecommerce","zip_code":"94041","latitude":37.391502,"longitude":-122.073463,"geopoint":{"type":"Point","coordinates":[-122.073463,37.391502]}},{"name":"FriendFeed","total_money_raised":5000000,"country_code":"USA","state_code":"CA","category_code":"web","zip_code":"94041","latitude":37.39248,"longitude":-122.072612,"geopoint":{"type":"Point","coordinates":[-122.072612,37.39248]}},{"name":"Meraki","total_money_raised":80000000,"country_code":"USA","state_code":"CA","category_code":"network_hosting","zip_code":"94110","latitude":37.392443,"longitude":-122.072517,"geopoint":{"type":"Point","coordinates":[-122.072517,37.392443]}},{"name":"MUBI","total_money_raised":8250000,"country_code":"USA","state_code":"CA","category_code":"games_video","zip_code":"94301","latitude":37.44236,"longitude":-122.161025,"geopoint":{"type":"Point","coordinates":[-122.161025,37.44236]}},{"name":"Kosmix","total_money_raised":55000000,"country_code":"USA","state_code":"CA","category_code":"web","zip_code":"94041","latitude":37.3867729,"longitude":-122.0752224,"geopoint":{"type":"Point","coordinates":[-122.0752224,37.3867729]}},{"name":"Uptake","total_money_raised":16800000,"country_code":"USA","state_code":"CA","category_code":"web","zip_code":"94301","latitude":37.443058,"longitude":-122.161674,"geopoint":{"type":"Point","coordinates":[-122.161674,37.443058]}},{"name":"Edgeio","total_money_raised":6500000,"country_code":"USA","state_code":"CA","category_code":"ecommerce","zip_code":"94301","latitude":37.443058,"longitude":-122.161674,"geopoint":{"type":"Point","coordinates":[-122.161674,37.443058]}},{"name":"High Gear Media","total_money_raised":12000000,"country_code":"USA","state_code":"CA","category_code":"web","zip_code":"94025","latitude":37.445335,"longitude":-122.15833,"geopoint":{"type":"Point","coordinates":[-122.15833,37.445335]}},{"name":"Car Advisory Network","total_money_raised":6500000,"country_code":"USA","state_code":"CA","category_code":"web","zip_code":"94301","latitude":37.445335,"longitude":-122.15833,"geopoint":{"type":"Point","coordinates":[-122.15833,37.445335]}},{"name":"PubMatic","total_money_raised":63000000,"country_code":"USA","state_code":"CA","category_code":"advertising","zip_code":"94063","latitude":37.446668,"longitude":-122.156579,"geopoint":{"type":"Point","coordinates":[-122.156579,37.446668]}},{"name":"Zong","total_money_raised":15000000,"country_code":"USA","state_code":"CA","category_code":"mobile","zip_code":"94025","latitude":37.4429885,"longitude":-122.1624131,"geopoint":{"type":"Point","coordinates":[-122.1624131,37.4429885]}},{"name":"Nexenta Systems","total_money_raised":49900000,"country_code":"USA","state_code":"CA","category_code":"software","zip_code":"95050","latitude":37.444098,"longitude":-122.161287,"geopoint":{"type":"Point","coordinates":[-122.161287,37.444098]}},{"name":"Tapulous","total_money_raised":2800000,"country_code":"USA","state_code":"CA","category_code":"mobile","zip_code":"94301","latitude":37.444332,"longitude":-122.161018,"geopoint":{"type":"Point","coordinates":[-122.161018,37.444332]}},{"name":"RingCube Technologies","total_money_raised":26000000,"country_code":"USA","state_code":"CA","category_code":"software","zip_code":"94041","latitude":37.3915589,"longitude":-122.0702643,"geopoint":{"type":"Point","coordinates":[-122.0702643,37.3915589]}},{"name":"EchoSign","total_money_raised":8500000,"country_code":"USA","state_code":"CA","category_code":"web","zip_code":"94301","latitude":37.445326,"longitude":-122.160671,"geopoint":{"type":"Point","coordinates":[-122.160671,37.445326]}},{"name":"Peerflix","total_money_raised":10000000,"country_code":"USA","state_code":"CA","category_code":"advertising","zip_code":null,"latitude":37.446407,"longitude":-122.159712,"geopoint":{"type":"Point","coordinates":[-122.159712,37.446407]}},{"name":"Milo","total_money_raised":4950000,"country_code":"USA","state_code":"CA","category_code":"web","zip_code":"94301","latitude":37.444531,"longitude":-122.163352,"geopoint":{"type":"Point","coordinates":[-122.163352,37.444531]}},{"name":"Lala","total_money_raised":44200000,"country_code":"USA","state_code":"CA","category_code":"games_video","zip_code":"94301","latitude":37.451151,"longitude":-122.154369,"geopoint":{"type":"Point","coordinates":[-122.154369,37.451151]}},{"name":"Ztail","total_money_raised":1500000,"country_code":"USA","state_code":"CA","category_code":"ecommerce","zip_code":"94301","latitude":37.44931,"longitude":-122.160011,"geopoint":{"type":"Point","coordinates":[-122.160011,37.44931]}},{"name":"Dasient","total_money_raised":2000000,"country_code":"USA","state_code":"CA","category_code":"web","zip_code":"94301","latitude":37.44931,"longitude":-122.160011,"geopoint":{"type":"Point","coordinates":[-122.160011,37.44931]}},{"name":"Mozes","total_money_raised":22300000,"country_code":"USA","state_code":"CA","category_code":"mobile","zip_code":"94306","latitude":37.445667,"longitude":-122.166911,"geopoint":{"type":"Point","coordinates":[-122.166911,37.445667]}},{"name":"Rosum","total_money_raised":31000000,"country_code":"USA","state_code":"CA","category_code":"mobile","zip_code":"94043","latitude":37.397302,"longitude":-122.059562,"geopoint":{"type":"Point","coordinates":[-122.059562,37.397302]}},{"name":"Polaris Wireless","total_money_raised":10000000,"country_code":"USA","state_code":"CA","category_code":"mobile","zip_code":"94043","latitude":37.397528,"longitude":-122.05892,"geopoint":{"type":"Point","coordinates":[-122.05892,37.397528]}},{"name":"InMobi","total_money_raised":216000000,"country_code":"USA","state_code":"CA","category_code":"mobile","zip_code":"94107","latitude":37.4465496,"longitude":-122.1709208,"geopoint":{"type":"Point","coordinates":[-122.1709208,37.4465496]}},{"name":"Anvato","total_money_raised":2550000,"country_code":"USA","state_code":"CA","category_code":"games_video","zip_code":"94043","latitude":37.400689,"longitude":-122.0572,"geopoint":{"type":"Point","coordinates":[-122.0572,37.400689]}},{"name":"Krugle","total_money_raised":6100000,"country_code":"USA","state_code":"CA","category_code":"search","zip_code":"94025","latitude":37.45604,"longitude":-122.165399,"geopoint":{"type":"Point","coordinates":[-122.165399,37.45604]}},{"name":"Reconnex","total_money_raised":16000000,"country_code":"USA","state_code":"CA","category_code":"software","zip_code":"94043","latitude":37.388072,"longitude":-122.055975,"geopoint":{"type":"Point","coordinates":[-122.055975,37.388072]}},{"name":"Connectbeam","total_money_raised":3500000,"country_code":"USA","state_code":"CA","category_code":"software","zip_code":"94043","latitude":37.401818,"longitude":-122.050565,"geopoint":{"type":"Point","coordinates":[-122.050565,37.401818]}},{"name":"Connectbeam","total_money_raised":3500000,"country_code":"USA","state_code":"CA","category_code":"software","zip_code":"94043","latitude":37.401818,"longitude":-122.050565,"geopoint":{"type":"Point","coordinates":[-122.050565,37.401818]}},{"name":"Plaxo","total_money_raised":28300000,"country_code":"USA","state_code":"CA","category_code":"web","zip_code":"94089","latitude":37.387845,"longitude":-122.055197,"geopoint":{"type":"Point","coordinates":[-122.055197,37.387845]}},{"name":"Factery","total_money_raised":1200000,"country_code":"USA","state_code":"CA","category_code":"web","zip_code":"94025","latitude":37.4484914,"longitude":-122.1802812,"geopoint":{"type":"Point","coordinates":[-122.1802812,37.4484914]}},{"name":"Clearwell Systems","total_money_raised":29000000,"country_code":"USA","state_code":"CA","category_code":"software","zip_code":"94043","latitude":37.398022,"longitude":-122.049143,"geopoint":{"type":"Point","coordinates":[-122.049143,37.398022]}},{"name":"Elance","total_money_raised":94800000,"country_code":"USA","state_code":"CA","category_code":"web","zip_code":"94043","latitude":37.398022,"longitude":-122.049143,"geopoint":{"type":"Point","coordinates":[-122.049143,37.398022]}},{"name":"Graspr","total_money_raised":2500000,"country_code":"USA","state_code":"CA","category_code":"games_video","zip_code":"94041","latitude":37.384919,"longitude":-122.053175,"geopoint":{"type":"Point","coordinates":[-122.053175,37.384919]}},{"name":"Verismo Networks","total_money_raised":17000000,"country_code":"USA","state_code":"CA","category_code":"games_video","zip_code":"94040","latitude":37.3874345,"longitude":-122.051793,"geopoint":{"type":"Point","coordinates":[-122.051793,37.3874345]}},{"name":"Gear6","total_money_raised":20000000,"country_code":"USA","state_code":"CA","category_code":"network_hosting","zip_code":"94043","latitude":37.389615,"longitude":-122.050179,"geopoint":{"type":"Point","coordinates":[-122.050179,37.389615]}},{"name":"Medallia","total_money_raised":55000000,"country_code":"USA","state_code":"CA","category_code":"software","zip_code":"94306","latitude":37.4520239,"longitude":-122.1797053,"geopoint":{"type":"Point","coordinates":[-122.1797053,37.4520239]}},{"name":"Luminate","total_money_raised":28500000,"country_code":"USA","state_code":"CA","category_code":"advertising","zip_code":"94043","latitude":37.3998333,"longitude":-122.0465447,"geopoint":{"type":"Point","coordinates":[-122.0465447,37.3998333]}},{"name":"Intelliden","total_money_raised":80000000,"country_code":"USA","state_code":"CA","category_code":"software","zip_code":"94025","latitude":37.4587657,"longitude":-122.1725191,"geopoint":{"type":"Point","coordinates":[-122.1725191,37.4587657]}},{"name":"Britely","total_money_raised":3900000,"country_code":"USA","state_code":"CA","category_code":"web","zip_code":"94306","latitude":37.458766,"longitude":-122.172519,"geopoint":{"type":"Point","coordinates":[-122.172519,37.458766]}},{"name":"Crescendo Networks","total_money_raised":24500000,"country_code":"USA","state_code":"CA","category_code":"network_hosting","zip_code":"94085","latitude":37.451702,"longitude":-122.182253,"geopoint":{"type":"Point","coordinates":[-122.182253,37.451702]}},{"name":"SezWho","total_money_raised":1000000,"country_code":"USA","state_code":"CA","category_code":"web","zip_code":"94024","latitude":37.351894,"longitude":-122.085807,"geopoint":{"type":"Point","coordinates":[-122.085807,37.351894]}},{"name":"Jaxtr","total_money_raised":21500000,"country_code":"USA","state_code":"CA","category_code":"mobile","zip_code":"94025","latitude":37.451026,"longitude":-122.18676,"geopoint":{"type":"Point","coordinates":[-122.18676,37.451026]}},{"name":"Center'd","total_money_raised":10400000,"country_code":"USA","state_code":"CA","category_code":"web","zip_code":"94025","latitude":37.452992,"longitude":-122.185098,"geopoint":{"type":"Point","coordinates":[-122.185098,37.452992]}},{"name":"SurveyMonkey","total_money_raised":965000000,"country_code":"USA","state_code":"CA","category_code":"software","zip_code":"94301","latitude":37.453952,"longitude":-122.185141,"geopoint":{"type":"Point","coordinates":[-122.185141,37.453952]}},{"name":"Jasper Wireless","total_money_raised":155000000,"country_code":"USA","state_code":"CA","category_code":"mobile","zip_code":"94043","latitude":37.394392,"longitude":-122.04221,"geopoint":{"type":"Point","coordinates":[-122.04221,37.394392]}},{"name":"Gamook","total_money_raised":1500000,"country_code":"USA","state_code":"CA","category_code":"games_video","zip_code":"94025","latitude":37.41924,"longitude":-122.208414,"geopoint":{"type":"Point","coordinates":[-122.208414,37.41924]}},{"name":"Palm","total_money_raised":100000000,"country_code":"USA","state_code":"CA","category_code":"mobile","zip_code":"94085","latitude":37.392362,"longitude":-122.040051,"geopoint":{"type":"Point","coordinates":[-122.040051,37.392362]}},{"name":"Booyah","total_money_raised":59500000,"country_code":"USA","state_code":"CA","category_code":"games_video","zip_code":"94107","latitude":37.420728,"longitude":-122.2103414,"geopoint":{"type":"Point","coordinates":[-122.2103414,37.420728]}},{"name":"Serus","total_money_raised":13800000,"country_code":"USA","state_code":"CA","category_code":"web","zip_code":"94085","latitude":37.39853,"longitude":-122.036018,"geopoint":{"type":"Point","coordinates":[-122.036018,37.39853]}},{"name":"Ruckus Wireless","total_money_raised":64900000,"country_code":"USA","state_code":"CA","category_code":"mobile","zip_code":"94085","latitude":37.3913,"longitude":-122.037538,"geopoint":{"type":"Point","coordinates":[-122.037538,37.3913]}},{"name":"Pano Logic","total_money_raised":38000000,"country_code":"USA","state_code":"CA","category_code":"software","zip_code":"94025","latitude":37.477037,"longitude":-122.15164,"geopoint":{"type":"Point","coordinates":[-122.15164,37.477037]}},{"name":"Sonopia","total_money_raised":21500000,"country_code":"USA","state_code":"CA","category_code":"mobile","zip_code":"94025","latitude":37.477944,"longitude":-122.151234,"geopoint":{"type":"Point","coordinates":[-122.151234,37.477944]}},{"name":"Meru Networks","total_money_raised":164000000,"country_code":"USA","state_code":"CA","category_code":"mobile","zip_code":"94089","latitude":37.400867,"longitude":-122.033281,"geopoint":{"type":"Point","coordinates":[-122.033281,37.400867]}},{"name":"Issuu","total_money_raised":6250000,"country_code":"USA","state_code":"CA","category_code":"web","zip_code":"94301","latitude":37.4784804,"longitude":-122.1514101,"geopoint":{"type":"Point","coordinates":[-122.1514101,37.4784804]}},{"name":"Efficient Frontier","total_money_raised":6000000,"country_code":"USA","state_code":"CA","category_code":"advertising","zip_code":"94089","latitude":37.4049731,"longitude":-122.0323525,"geopoint":{"type":"Point","coordinates":[-122.0323525,37.4049731]}},{"name":"VoloMedia","total_money_raised":12000000,"country_code":"USA","state_code":"CA","category_code":"advertising","zip_code":"94086","latitude":37.382376,"longitude":-122.037607,"geopoint":{"type":"Point","coordinates":[-122.037607,37.382376]}},{"name":"Proofpoint","total_money_raised":59000000,"country_code":"USA","state_code":"CA","category_code":"software","zip_code":"94089","latitude":37.400751,"longitude":-122.031591,"geopoint":{"type":"Point","coordinates":[-122.031591,37.400751]}},{"name":"Mu Dynamics","total_money_raised":24000000,"country_code":"USA","state_code":"CA","category_code":"network_hosting","zip_code":"94085","latitude":37.390233,"longitude":-122.033741,"geopoint":{"type":"Point","coordinates":[-122.033741,37.390233]}},{"name":"Kaboodle","total_money_raised":5000000,"country_code":"USA","state_code":"CA","category_code":"ecommerce","zip_code":"94041","latitude":37.382162,"longitude":-122.036301,"geopoint":{"type":"Point","coordinates":[-122.036301,37.382162]}},{"name":"Azingo","total_money_raised":80000000,"country_code":"USA","state_code":"CA","category_code":"mobile","zip_code":"94086","latitude":37.382162,"longitude":-122.036301,"geopoint":{"type":"Point","coordinates":[-122.036301,37.382162]}},{"name":"Electric Cloud","total_money_raised":25600000,"country_code":"USA","state_code":"CA","category_code":"software","zip_code":"94085","latitude":37.3903639,"longitude":-122.0325963,"geopoint":{"type":"Point","coordinates":[-122.0325963,37.3903639]}},{"name":"Transera Communications","total_money_raised":37000000,"country_code":"USA","state_code":"CA","category_code":"software","zip_code":"94087","latitude":37.3521697,"longitude":-122.0622892,"geopoint":{"type":"Point","coordinates":[-122.0622892,37.3521697]}},{"name":"SiBEAM","total_money_raised":114000000,"country_code":"USA","state_code":"CA","category_code":"mobile","zip_code":"94085","latitude":37.390704,"longitude":-122.03039,"geopoint":{"type":"Point","coordinates":[-122.03039,37.390704]}},{"name":"Chelsio Communications","total_money_raised":79000000,"country_code":"USA","state_code":"CA","category_code":"network_hosting","zip_code":"94085","latitude":37.3936563,"longitude":-122.0279022,"geopoint":{"type":"Point","coordinates":[-122.0279022,37.3936563]}},{"name":"Yahoo!","total_money_raised":6800000,"country_code":"USA","state_code":"CA","category_code":"web","zip_code":"94089","latitude":37.418531,"longitude":-122.025485,"geopoint":{"type":"Point","coordinates":[-122.025485,37.418531]}},{"name":"Conformia Software","total_money_raised":27300000,"country_code":"USA","state_code":"CA","category_code":"software","zip_code":"94086","latitude":37.377972,"longitude":-122.033361,"geopoint":{"type":"Point","coordinates":[-122.033361,37.377972]}},{"name":"ZManda","total_money_raised":13000000,"country_code":"USA","state_code":"CA","category_code":"software","zip_code":"94086","latitude":37.3725243,"longitude":-122.035963,"geopoint":{"type":"Point","coordinates":[-122.035963,37.3725243]}},{"name":"ZManda","total_money_raised":13000000,"country_code":"USA","state_code":"CA","category_code":"software","zip_code":"94086","latitude":37.3725243,"longitude":-122.035963,"geopoint":{"type":"Point","coordinates":[-122.035963,37.3725243]}},{"name":"PGP Corporation","total_money_raised":51100000,"country_code":"USA","state_code":"CA","category_code":"software","zip_code":"94025","latitude":37.481407,"longitude":-122.169958,"geopoint":{"type":"Point","coordinates":[-122.169958,37.481407]}},{"name":"RGB Networks","total_money_raised":52000000,"country_code":"USA","state_code":"CA","category_code":"games_video","zip_code":"94089","latitude":37.4123706,"longitude":-122.0216271,"geopoint":{"type":"Point","coordinates":[-122.0216271,37.4123706]}},{"name":"Nangate","total_money_raised":35000000,"country_code":"USA","state_code":"CA","category_code":"mobile","zip_code":"94089-1321","latitude":37.4043966,"longitude":-122.0213965,"geopoint":{"type":"Point","coordinates":[-122.0213965,37.4043966]}},{"name":"DeepDyve","total_money_raised":5380000,"country_code":"USA","state_code":"CA","category_code":"web","zip_code":"94086","latitude":37.377787,"longitude":-122.029217,"geopoint":{"type":"Point","coordinates":[-122.029217,37.377787]}},{"name":"MuseStorm","total_money_raised":1500000,"country_code":"USA","state_code":"CA","category_code":"web","zip_code":null,"latitude":37.368594,"longitude":-122.034021,"geopoint":{"type":"Point","coordinates":[-122.034021,37.368594]}},{"name":"Retrevo","total_money_raised":11900000,"country_code":"USA","state_code":"CA","category_code":"web","zip_code":"","latitude":37.368594,"longitude":-122.034021,"geopoint":{"type":"Point","coordinates":[-122.034021,37.368594]}},{"name":"Rohati Systems","total_money_raised":11000000,"country_code":"USA","state_code":"CA","category_code":"software","zip_code":"94089","latitude":37.4071848,"longitude":-122.0194922,"geopoint":{"type":"Point","coordinates":[-122.0194922,37.4071848]}},{"name":"Kasenna","total_money_raised":11000000,"country_code":"USA","state_code":"CA","category_code":"software","zip_code":"94089","latitude":37.407588,"longitude":-122.019357,"geopoint":{"type":"Point","coordinates":[-122.019357,37.407588]}},{"name":"oDesk","total_money_raised":44000000,"country_code":"USA","state_code":"CA","category_code":"web","zip_code":"94063","latitude":37.479952,"longitude":-122.178557,"geopoint":{"type":"Point","coordinates":[-122.178557,37.479952]}},{"name":"Gizmoz","total_money_raised":18100000,"country_code":"USA","state_code":"CA","category_code":"web","zip_code":null,"latitude":37.48413,"longitude":-122.169472,"geopoint":{"type":"Point","coordinates":[-122.169472,37.48413]}},{"name":"FilmLoop","total_money_raised":12600000,"country_code":"USA","state_code":"CA","category_code":"web","zip_code":"","latitude":37.48413,"longitude":-122.169472,"geopoint":{"type":"Point","coordinates":[-122.169472,37.48413]}},{"name":"Vivaty","total_money_raised":9400000,"country_code":"USA","state_code":"CA","category_code":"web","zip_code":"94306","latitude":37.48032,"longitude":-122.178371,"geopoint":{"type":"Point","coordinates":[-122.178371,37.48032]}},{"name":"CloudShield Technologies","total_money_raised":25000000,"country_code":"USA","state_code":"CA","category_code":"software","zip_code":"94089","latitude":37.409618,"longitude":-122.017792,"geopoint":{"type":"Point","coordinates":[-122.017792,37.409618]}},{"name":"mBlox","total_money_raised":78300000,"country_code":"USA","state_code":"CA","category_code":"mobile","zip_code":"94085","latitude":37.37604,"longitude":-122.025257,"geopoint":{"type":"Point","coordinates":[-122.025257,37.37604]}},{"name":"VirtualLogix","total_money_raised":29300000,"country_code":"USA","state_code":"CA","category_code":"software","zip_code":"94089","latitude":37.409147,"longitude":-122.015463,"geopoint":{"type":"Point","coordinates":[-122.015463,37.409147]}},{"name":"CashEdge","total_money_raised":5320000,"country_code":"USA","state_code":"CA","category_code":"web","zip_code":"94089-1317","latitude":37.406434,"longitude":-122.014829,"geopoint":{"type":"Point","coordinates":[-122.014829,37.406434]}},{"name":"Telsima","total_money_raised":95000000,"country_code":"USA","state_code":"CA","category_code":"web","zip_code":"94089","latitude":37.4092917,"longitude":-122.014027,"geopoint":{"type":"Point","coordinates":[-122.014027,37.4092917]}},{"name":"SkyGrid","total_money_raised":13300000,"country_code":"USA","state_code":"CA","category_code":"web","zip_code":"94089","latitude":37.40754,"longitude":-122.010958,"geopoint":{"type":"Point","coordinates":[-122.010958,37.40754]}},{"name":"Mercora","total_money_raised":5000000,"country_code":"USA","state_code":"CA","category_code":"web","zip_code":"94085","latitude":37.384239,"longitude":-122.012475,"geopoint":{"type":"Point","coordinates":[-122.012475,37.384239]}},{"name":"Minekey","total_money_raised":3600000,"country_code":"USA","state_code":"CA","category_code":"web","zip_code":"94085","latitude":37.384239,"longitude":-122.012475,"geopoint":{"type":"Point","coordinates":[-122.012475,37.384239]}},{"name":"Attributor","total_money_raised":25200000,"country_code":"USA","state_code":"CA","category_code":"software","zip_code":"94401","latitude":37.453687,"longitude":-122.228595,"geopoint":{"type":"Point","coordinates":[-122.228595,37.453687]}},{"name":"Moblyng","total_money_raised":19100000,"country_code":"USA","state_code":"CA","category_code":"games_video","zip_code":"94063","latitude":37.453665,"longitude":-122.229069,"geopoint":{"type":"Point","coordinates":[-122.229069,37.453665]}},{"name":"Venturi Wireless","total_money_raised":10000000,"country_code":"USA","state_code":"CA","category_code":"mobile","zip_code":"94085","latitude":37.4099985,"longitude":-122.0018725,"geopoint":{"type":"Point","coordinates":[-122.0018725,37.4099985]}},{"name":"RockYou","total_money_raised":136000000,"country_code":"USA","state_code":"CA","category_code":"games_video","zip_code":"94063","latitude":37.484619,"longitude":-122.206893,"geopoint":{"type":"Point","coordinates":[-122.206893,37.484619]}},{"name":"JellyCloud","total_money_raised":6600000,"country_code":"USA","state_code":"CA","category_code":"advertising","zip_code":"94063","latitude":37.485786,"longitude":-122.206246,"geopoint":{"type":"Point","coordinates":[-122.206246,37.485786]}},{"name":"Silver Spring Networks","total_money_raised":284000000,"country_code":"USA","state_code":"CA","category_code":"network_hosting","zip_code":"94063","latitude":37.4858629,"longitude":-122.2067269,"geopoint":{"type":"Point","coordinates":[-122.2067269,37.4858629]}},{"name":"YuMe","total_money_raised":72900000,"country_code":"USA","state_code":"CA","category_code":"advertising","zip_code":"94063","latitude":37.476479,"longitude":-122.221717,"geopoint":{"type":"Point","coordinates":[-122.221717,37.476479]}},{"name":"Coghead","total_money_raised":11200000,"country_code":"USA","state_code":"CA","category_code":"web","zip_code":null,"latitude":37.476479,"longitude":-122.221717,"geopoint":{"type":"Point","coordinates":[-122.221717,37.476479]}},{"name":"One True Media","total_money_raised":14000000,"country_code":"USA","state_code":"CA","category_code":"games_video","zip_code":"94063","latitude":37.485824,"longitude":-122.212095,"geopoint":{"type":"Point","coordinates":[-122.212095,37.485824]}},{"name":"Turbine","total_money_raised":76600000,"country_code":"USA","state_code":"CA","category_code":"games_video","zip_code":"","latitude":37.477652,"longitude":-122.223384,"geopoint":{"type":"Point","coordinates":[-122.223384,37.477652]}},{"name":"ZillionTV","total_money_raised":18100000,"country_code":"USA","state_code":"CA","category_code":"games_video","zip_code":"94086","latitude":37.3738725,"longitude":-121.9973546,"geopoint":{"type":"Point","coordinates":[-121.9973546,37.3738725]}},{"name":"GoldSpot Media","total_money_raised":17100000,"country_code":"USA","state_code":"CA","category_code":"advertising","zip_code":"94085","latitude":37.384206,"longitude":-121.992805,"geopoint":{"type":"Point","coordinates":[-121.992805,37.384206]}},{"name":"Corefino","total_money_raised":13600000,"country_code":"USA","state_code":"CA","category_code":"software","zip_code":"94085-4055","latitude":37.384206,"longitude":-121.992805,"geopoint":{"type":"Point","coordinates":[-121.992805,37.384206]}},{"name":"GestureTek","total_money_raised":26800000,"country_code":"USA","state_code":"CA","category_code":"software","zip_code":"94085","latitude":37.384206,"longitude":-121.992805,"geopoint":{"type":"Point","coordinates":[-121.992805,37.384206]}},{"name":"NoiseFree","total_money_raised":1400000,"country_code":"USA","state_code":"CA","category_code":"software","zip_code":"94085","latitude":37.3868616,"longitude":-121.9917771,"geopoint":{"type":"Point","coordinates":[-121.9917771,37.3868616]}},{"name":"4Home","total_money_raised":9150000,"country_code":"USA","state_code":"CA","category_code":"software","zip_code":"94085","latitude":37.385225,"longitude":-121.991912,"geopoint":{"type":"Point","coordinates":[-121.991912,37.385225]}},{"name":"Phonezoo","total_money_raised":2060000,"country_code":"USA","state_code":"CA","category_code":"web","zip_code":"94085","latitude":37.386376,"longitude":-121.991471,"geopoint":{"type":"Point","coordinates":[-121.991471,37.386376]}},{"name":"iPrint","total_money_raised":30800000,"country_code":"USA","state_code":"CA","category_code":"web","zip_code":"94063","latitude":37.489184,"longitude":-122.217166,"geopoint":{"type":"Point","coordinates":[-122.217166,37.489184]}},{"name":"Parascale","total_money_raised":11400000,"country_code":"USA","state_code":"CA","category_code":"network_hosting","zip_code":"95014","latitude":37.316653,"longitude":-122.05074,"geopoint":{"type":"Point","coordinates":[-122.05074,37.316653]}},{"name":"Plusmo","total_money_raised":4410000,"country_code":"USA","state_code":"CA","category_code":"mobile","zip_code":"95054","latitude":37.400367,"longitude":-121.985711,"geopoint":{"type":"Point","coordinates":[-121.985711,37.400367]}},{"name":"ScaleMP","total_money_raised":8000000,"country_code":"USA","state_code":"CA","category_code":"software","zip_code":"95014","latitude":37.3229727,"longitude":-122.0385792,"geopoint":{"type":"Point","coordinates":[-122.0385792,37.3229727]}},{"name":"Evernote","total_money_raised":251000000,"country_code":"USA","state_code":"CA","category_code":"software","zip_code":"94063","latitude":37.386774,"longitude":-121.987661,"geopoint":{"type":"Point","coordinates":[-121.987661,37.386774]}},{"name":"Infoaxe","total_money_raised":3900000,"country_code":"USA","state_code":"CA","category_code":"search","zip_code":"94085","latitude":37.386774,"longitude":-121.987661,"geopoint":{"type":"Point","coordinates":[-121.987661,37.386774]}},{"name":"Vuze","total_money_raised":34000000,"country_code":"USA","state_code":"CA","category_code":"games_video","zip_code":"94402","latitude":37.4858654,"longitude":-122.2262606,"geopoint":{"type":"Point","coordinates":[-122.2262606,37.4858654]}},{"name":"Ecrio","total_money_raised":27000000,"country_code":"USA","state_code":"CA","category_code":"mobile","zip_code":"95014","latitude":37.3228,"longitude":-122.031282,"geopoint":{"type":"Point","coordinates":[-122.031282,37.3228]}},{"name":"Predictify","total_money_raised":4300000,"country_code":"USA","state_code":"CA","category_code":"advertising","zip_code":"94063","latitude":37.486571,"longitude":-122.229161,"geopoint":{"type":"Point","coordinates":[-122.229161,37.486571]}},{"name":"Billeo","total_money_raised":15300000,"country_code":"USA","state_code":"CA","category_code":"ecommerce","zip_code":"95054","latitude":37.4069445,"longitude":-121.9797628,"geopoint":{"type":"Point","coordinates":[-121.9797628,37.4069445]}},{"name":"Qik","total_money_raised":14800000,"country_code":"USA","state_code":"CA","category_code":"mobile","zip_code":"94063","latitude":37.486368,"longitude":-122.230116,"geopoint":{"type":"Point","coordinates":[-122.230116,37.486368]}},{"name":"BroadLight","total_money_raised":27000000,"country_code":"USA","state_code":"CA","category_code":"software","zip_code":"95054","latitude":37.404044,"longitude":-121.978956,"geopoint":{"type":"Point","coordinates":[-121.978956,37.404044]}},{"name":"MiNOWireless","total_money_raised":8500000,"country_code":"USA","state_code":"CA","category_code":"software","zip_code":"95054","latitude":37.404044,"longitude":-121.978956,"geopoint":{"type":"Point","coordinates":[-121.978956,37.404044]}},{"name":"IMshopping","total_money_raised":4700000,"country_code":"USA","state_code":"CA","category_code":"ecommerce","zip_code":"95054","latitude":37.399208,"longitude":-121.97895,"geopoint":{"type":"Point","coordinates":[-121.97895,37.399208]}},{"name":"Vobile","total_money_raised":10000000,"country_code":"USA","state_code":"CA","category_code":"web","zip_code":"95054","latitude":37.399208,"longitude":-121.97895,"geopoint":{"type":"Point","coordinates":[-121.97895,37.399208]}},{"name":"rVita","total_money_raised":1000000,"country_code":"USA","state_code":"CA","category_code":"software","zip_code":"95054","latitude":37.398476,"longitude":-121.978821,"geopoint":{"type":"Point","coordinates":[-121.978821,37.398476]}},{"name":"TopChalks","total_money_raised":3800000,"country_code":"USA","state_code":"CA","category_code":"software","zip_code":"95054","latitude":37.398476,"longitude":-121.978821,"geopoint":{"type":"Point","coordinates":[-121.978821,37.398476]}},{"name":"Element Labs","total_money_raised":14800000,"country_code":"USA","state_code":"CA","category_code":"web","zip_code":"95054","latitude":37.380364,"longitude":-121.9823779,"geopoint":{"type":"Point","coordinates":[-121.9823779,37.380364]}},{"name":"Grouply","total_money_raised":2600000,"country_code":"USA","state_code":"CA","category_code":"network_hosting","zip_code":"94063","latitude":37.502742,"longitude":-122.211281,"geopoint":{"type":"Point","coordinates":[-122.211281,37.502742]}},{"name":"Zeus","total_money_raised":3000000,"country_code":"USA","state_code":"CA","category_code":"software","zip_code":"CA 95054","latitude":37.406217,"longitude":-121.976473,"geopoint":{"type":"Point","coordinates":[-121.976473,37.406217]}},{"name":"OpSource","total_money_raised":49000000,"country_code":"USA","state_code":"CA","category_code":"network_hosting","zip_code":"95054","latitude":37.406217,"longitude":-121.976473,"geopoint":{"type":"Point","coordinates":[-121.976473,37.406217]}},{"name":"Liquid Engines","total_money_raised":5500000,"country_code":"USA","state_code":"CA","category_code":"software","zip_code":"95054","latitude":37.406217,"longitude":-121.976473,"geopoint":{"type":"Point","coordinates":[-121.976473,37.406217]}},{"name":"CrestaTech","total_money_raised":20900000,"country_code":"USA","state_code":"CA","category_code":"software","zip_code":"95054","latitude":37.383368,"longitude":-121.980186,"geopoint":{"type":"Point","coordinates":[-121.980186,37.383368]}},{"name":"BillShrink","total_money_raised":9000000,"country_code":"USA","state_code":"CA","category_code":"web","zip_code":"94063","latitude":37.503147,"longitude":-122.211435,"geopoint":{"type":"Point","coordinates":[-122.211435,37.503147]}},{"name":"BlogHer","total_money_raised":15500000,"country_code":"USA","state_code":"CA","category_code":"web","zip_code":"94065","latitude":37.491356,"longitude":-122.228843,"geopoint":{"type":"Point","coordinates":[-122.228843,37.491356]}},{"name":"Flock","total_money_raised":28300000,"country_code":"USA","state_code":"CA","category_code":"web","zip_code":"94025","latitude":37.491356,"longitude":-122.228843,"geopoint":{"type":"Point","coordinates":[-122.228843,37.491356]}},{"name":"Videonline Communications","total_money_raised":12000000,"country_code":"USA","state_code":"CA","category_code":"web","zip_code":"94063","latitude":37.495996,"longitude":-122.223273,"geopoint":{"type":"Point","coordinates":[-122.223273,37.495996]}},{"name":"GreenNote","total_money_raised":4200000,"country_code":"USA","state_code":"CA","category_code":"web","zip_code":"","latitude":37.492685,"longitude":-122.227765,"geopoint":{"type":"Point","coordinates":[-122.227765,37.492685]}},{"name":"SLI Systems","total_money_raised":1000000,"country_code":"USA","state_code":"CA","category_code":"web","zip_code":"95110","latitude":37.3183744,"longitude":-122.0302814,"geopoint":{"type":"Point","coordinates":[-122.0302814,37.3183744]}},{"name":"Zazzle","total_money_raised":46000000,"country_code":"USA","state_code":"CA","category_code":"ecommerce","zip_code":"94063","latitude":37.5108541,"longitude":-122.2013557,"geopoint":{"type":"Point","coordinates":[-122.2013557,37.5108541]}},{"name":"SpikeSource","total_money_raised":68000000,"country_code":"USA","state_code":"CA","category_code":"software","zip_code":"94043","latitude":37.510805,"longitude":-122.203744,"geopoint":{"type":"Point","coordinates":[-122.203744,37.510805]}},{"name":"Replay Solutions","total_money_raised":15200000,"country_code":"USA","state_code":"CA","category_code":"software","zip_code":"94063","latitude":37.512318,"longitude":-122.200914,"geopoint":{"type":"Point","coordinates":[-122.200914,37.512318]}},{"name":"Turn","total_money_raised":61100000,"country_code":"USA","state_code":"CA","category_code":"advertising","zip_code":"94063","latitude":37.512253,"longitude":-122.201099,"geopoint":{"type":"Point","coordinates":[-122.201099,37.512253]}},{"name":"Dexterra","total_money_raised":123000000,"country_code":"USA","state_code":"CA","category_code":"mobile","zip_code":"94063","latitude":37.512253,"longitude":-122.201099,"geopoint":{"type":"Point","coordinates":[-122.201099,37.512253]}},{"name":"SideStep","total_money_raised":32000000,"country_code":"USA","state_code":"CA","category_code":"web","zip_code":"95051","latitude":37.374998,"longitude":-121.977853,"geopoint":{"type":"Point","coordinates":[-121.977853,37.374998]}},{"name":"Baynote","total_money_raised":27800000,"country_code":"USA","state_code":"CA","category_code":"software","zip_code":"95110","latitude":37.332271,"longitude":-122.006539,"geopoint":{"type":"Point","coordinates":[-122.006539,37.332271]}},{"name":"PixSense","total_money_raised":7400000,"country_code":"USA","state_code":"CA","category_code":"mobile","zip_code":"95054","latitude":37.387114,"longitude":-121.973228,"geopoint":{"type":"Point","coordinates":[-121.973228,37.387114]}},{"name":"Mimosa Systems","total_money_raised":53800000,"country_code":"USA","state_code":"CA","category_code":"software","zip_code":"95054","latitude":37.379684,"longitude":-121.97514,"geopoint":{"type":"Point","coordinates":[-121.97514,37.379684]}},{"name":"Mimosa Systems","total_money_raised":53800000,"country_code":"USA","state_code":"CA","category_code":"software","zip_code":"95054","latitude":37.379684,"longitude":-121.97514,"geopoint":{"type":"Point","coordinates":[-121.97514,37.379684]}},{"name":"SugarCRM","total_money_raised":135000000,"country_code":"USA","state_code":"CA","category_code":"software","zip_code":"95014","latitude":37.323739,"longitude":-122.014147,"geopoint":{"type":"Point","coordinates":[-122.014147,37.323739]}},{"name":"Packet Island","total_money_raised":2000000,"country_code":"USA","state_code":"CA","category_code":"software","zip_code":"95014","latitude":37.323991,"longitude":-122.012882,"geopoint":{"type":"Point","coordinates":[-122.012882,37.323991]}},{"name":"Xangati","total_money_raised":21700000,"country_code":"USA","state_code":"CA","category_code":"software","zip_code":"95128","latitude":37.32136,"longitude":-122.014616,"geopoint":{"type":"Point","coordinates":[-122.014616,37.32136]}},{"name":"InMage Systems","total_money_raised":35900000,"country_code":"USA","state_code":"CA","category_code":"software","zip_code":"95112","latitude":37.381034,"longitude":-121.971487,"geopoint":{"type":"Point","coordinates":[-121.971487,37.381034]}},{"name":"3Leaf","total_money_raised":65000000,"country_code":"USA","state_code":"CA","category_code":"software","zip_code":"95054","latitude":37.381034,"longitude":-121.971487,"geopoint":{"type":"Point","coordinates":[-121.971487,37.381034]}},{"name":"Packet Design","total_money_raised":2800000,"country_code":"USA","state_code":"CA","category_code":"software","zip_code":"95054","latitude":37.3821368,"longitude":-121.970505,"geopoint":{"type":"Point","coordinates":[-121.970505,37.3821368]}},{"name":"Woven Systems","total_money_raised":30000000,"country_code":"USA","state_code":"CA","category_code":"network_hosting","zip_code":"95054","latitude":37.3821368,"longitude":-121.970505,"geopoint":{"type":"Point","coordinates":[-121.970505,37.3821368]}},{"name":"FastScaleTechnology","total_money_raised":12000000,"country_code":"USA","state_code":"CA","category_code":"software","zip_code":"95051","latitude":37.370056,"longitude":-121.973157,"geopoint":{"type":"Point","coordinates":[-121.973157,37.370056]}},{"name":"Zend Technologies","total_money_raised":44000000,"country_code":"USA","state_code":"CA","category_code":"software","zip_code":"95014","latitude":37.322385,"longitude":-122.008549,"geopoint":{"type":"Point","coordinates":[-122.008549,37.322385]}},{"name":"Berkeley Design Automation","total_money_raised":20300000,"country_code":"USA","state_code":"CA","category_code":"software","zip_code":"95154","latitude":37.374659,"longitude":-121.970209,"geopoint":{"type":"Point","coordinates":[-121.970209,37.374659]}},{"name":"DemandTec","total_money_raised":6000000,"country_code":"USA","state_code":"CA","category_code":"software","zip_code":"94070","latitude":37.498842,"longitude":-122.239815,"geopoint":{"type":"Point","coordinates":[-122.239815,37.498842]}},{"name":"PlaySpan","total_money_raised":46300000,"country_code":"USA","state_code":"CA","category_code":"games_video","zip_code":"95054","latitude":37.396312,"longitude":-121.961396,"geopoint":{"type":"Point","coordinates":[-121.961396,37.396312]}},{"name":"ITM Software","total_money_raised":10000000,"country_code":"USA","state_code":"CA","category_code":"software","zip_code":"95051","latitude":37.3731161,"longitude":-121.9659387,"geopoint":{"type":"Point","coordinates":[-121.9659387,37.3731161]}},{"name":"CellSpin","total_money_raised":2000000,"country_code":"USA","state_code":"CA","category_code":"advertising","zip_code":"95134","latitude":37.421731,"longitude":-121.957018,"geopoint":{"type":"Point","coordinates":[-121.957018,37.421731]}},{"name":"SkyPilot Networks","total_money_raised":68400000,"country_code":"USA","state_code":"CA","category_code":"mobile","zip_code":"95054","latitude":37.381876,"longitude":-121.95993,"geopoint":{"type":"Point","coordinates":[-121.95993,37.381876]}},{"name":"Kickfire","total_money_raised":20000000,"country_code":"USA","state_code":"CA","category_code":"software","zip_code":"95054","latitude":37.381876,"longitude":-121.95993,"geopoint":{"type":"Point","coordinates":[-121.95993,37.381876]}},{"name":"Cisco","total_money_raised":2500000,"country_code":"USA","state_code":"CA","category_code":"network_hosting","zip_code":"95134","latitude":37.408802,"longitude":-121.95377,"geopoint":{"type":"Point","coordinates":[-121.95377,37.408802]}},{"name":"CDNetworks","total_money_raised":96500000,"country_code":"USA","state_code":"CA","category_code":"network_hosting","zip_code":"CA 95134","latitude":37.4050988,"longitude":-121.9477639,"geopoint":{"type":"Point","coordinates":[-121.9477639,37.4050988]}},{"name":"eriQoo","total_money_raised":40000000,"country_code":"USA","state_code":"CA","category_code":"search","zip_code":"94538","latitude":37.4942858,"longitude":-121.9814354,"geopoint":{"type":"Point","coordinates":[-121.9814354,37.4942858]}},{"name":"Force10 Networks","total_money_raised":116000000,"country_code":"USA","state_code":"CA","category_code":"ecommerce","zip_code":"95134-1362","latitude":37.418636,"longitude":-121.944828,"geopoint":{"type":"Point","coordinates":[-121.944828,37.418636]}},{"name":"WiChorus","total_money_raised":42500000,"country_code":"USA","state_code":"CA","category_code":"mobile","zip_code":"95134","latitude":37.409096,"longitude":-121.943191,"geopoint":{"type":"Point","coordinates":[-121.943191,37.409096]}},{"name":"Cotendo","total_money_raised":36000000,"country_code":"USA","state_code":"CA","category_code":"software","zip_code":"94085","latitude":37.504764,"longitude":-122.259568,"geopoint":{"type":"Point","coordinates":[-122.259568,37.504764]}},{"name":"Ubicom","total_money_raised":58200000,"country_code":"USA","state_code":"CA","category_code":"software","zip_code":"95134","latitude":37.414105,"longitude":-121.940895,"geopoint":{"type":"Point","coordinates":[-121.940895,37.414105]}},{"name":"Zuberance","total_money_raised":12000000,"country_code":"USA","state_code":"CA","category_code":"advertising","zip_code":"94070","latitude":37.506475,"longitude":-122.259932,"geopoint":{"type":"Point","coordinates":[-122.259932,37.506475]}},{"name":"Panasas","total_money_raised":65200000,"country_code":"USA","state_code":"CA","category_code":"network_hosting","zip_code":"94555","latitude":37.5505578,"longitude":-122.0637143,"geopoint":{"type":"Point","coordinates":[-122.0637143,37.5505578]}},{"name":"Actelis Networks","total_money_raised":57600000,"country_code":"USA","state_code":"CA","category_code":"network_hosting","zip_code":"94538","latitude":37.517078,"longitude":-121.9920281,"geopoint":{"type":"Point","coordinates":[-121.9920281,37.517078]}},{"name":"Good Technology","total_money_raised":271000000,"country_code":"USA","state_code":"CA","category_code":"mobile","zip_code":"94085","latitude":37.518539,"longitude":-122.254275,"geopoint":{"type":"Point","coordinates":[-122.254275,37.518539]}},{"name":"Visto","total_money_raised":156000000,"country_code":"USA","state_code":"CA","category_code":"mobile","zip_code":"94085","latitude":37.518539,"longitude":-122.254275,"geopoint":{"type":"Point","coordinates":[-122.254275,37.518539]}},{"name":"BASH Gaming","total_money_raised":1000000,"country_code":"USA","state_code":"CA","category_code":"games_video","zip_code":"94555","latitude":37.5561712,"longitude":-122.0780632,"geopoint":{"type":"Point","coordinates":[-122.0780632,37.5561712]}},{"name":"A10 Networks","total_money_raised":118000000,"country_code":"USA","state_code":"CA","category_code":"network_hosting","zip_code":"95134","latitude":37.391198,"longitude":-121.93393,"geopoint":{"type":"Point","coordinates":[-121.93393,37.391198]}},{"name":"NeoPhotonics","total_money_raised":155000000,"country_code":"USA","state_code":"CA","category_code":"network_hosting","zip_code":"95134","latitude":37.3961981,"longitude":-121.9301666,"geopoint":{"type":"Point","coordinates":[-121.9301666,37.3961981]}},{"name":"Cellfire","total_money_raised":26000000,"country_code":"USA","state_code":"CA","category_code":"mobile","zip_code":"95054","latitude":37.395923,"longitude":-121.92902,"geopoint":{"type":"Point","coordinates":[-121.92902,37.395923]}},{"name":"MyBuys","total_money_raised":40800000,"country_code":"USA","state_code":"CA","category_code":"advertising","zip_code":"94402","latitude":37.530893,"longitude":-122.245087,"geopoint":{"type":"Point","coordinates":[-122.245087,37.530893]}},{"name":"Calient Technologies","total_money_raised":51400000,"country_code":"USA","state_code":"CA","category_code":"network_hosting","zip_code":"93117","latitude":37.387642,"longitude":-121.93006,"geopoint":{"type":"Point","coordinates":[-121.93006,37.387642]}},{"name":"TwoFish","total_money_raised":9500000,"country_code":"USA","state_code":"CA","category_code":"ecommerce","zip_code":"94065","latitude":37.522281,"longitude":-122.258139,"geopoint":{"type":"Point","coordinates":[-122.258139,37.522281]}},{"name":"UBmatrix","total_money_raised":9300000,"country_code":"USA","state_code":"CA","category_code":"software","zip_code":"94065","latitude":37.522281,"longitude":-122.258139,"geopoint":{"type":"Point","coordinates":[-122.258139,37.522281]}},{"name":"UBmatrix","total_money_raised":9300000,"country_code":"USA","state_code":"CA","category_code":"software","zip_code":"94065","latitude":37.522281,"longitude":-122.258139,"geopoint":{"type":"Point","coordinates":[-122.258139,37.522281]}},{"name":"Smallaa","total_money_raised":3000000,"country_code":"USA","state_code":"CA","category_code":"web","zip_code":"95134","latitude":37.39458,"longitude":-121.928393,"geopoint":{"type":"Point","coordinates":[-121.928393,37.39458]}},{"name":"Verient","total_money_raised":13900000,"country_code":"USA","state_code":"CA","category_code":"software","zip_code":"95129","latitude":37.3033387,"longitude":-121.979634,"geopoint":{"type":"Point","coordinates":[-121.979634,37.3033387]}},{"name":"CoreOptics","total_money_raised":89500000,"country_code":"USA","state_code":"CA","category_code":"network_hosting","zip_code":"95134","latitude":37.395931,"longitude":-121.927357,"geopoint":{"type":"Point","coordinates":[-121.927357,37.395931]}},{"name":"Nimsoft","total_money_raised":22300000,"country_code":"USA","state_code":"CA","category_code":"software","zip_code":"94065","latitude":37.524851,"longitude":-122.257185,"geopoint":{"type":"Point","coordinates":[-122.257185,37.524851]}},{"name":"obopay","total_money_raised":145000000,"country_code":"USA","state_code":"CA","category_code":"mobile","zip_code":"","latitude":37.524729,"longitude":-122.258037,"geopoint":{"type":"Point","coordinates":[-122.258037,37.524729]}},{"name":"Phoenix Technologies","total_money_raised":20300000,"country_code":"USA","state_code":"CA","category_code":"software","zip_code":"95035","latitude":37.414225,"longitude":-121.92439,"geopoint":{"type":"Point","coordinates":[-121.92439,37.414225]}},{"name":"Aicent","total_money_raised":145000000,"country_code":"USA","state_code":"CA","category_code":"mobile","zip_code":"95110","latitude":37.384211,"longitude":-121.924797,"geopoint":{"type":"Point","coordinates":[-121.924797,37.384211]}},{"name":"Brocade Communications Systems","total_money_raised":300000000,"country_code":"USA","state_code":"CA","category_code":"network_hosting","zip_code":"95131","latitude":37.376066,"longitude":-121.926678,"geopoint":{"type":"Point","coordinates":[-121.926678,37.376066]}},{"name":"Conformiq","total_money_raised":4200000,"country_code":"USA","state_code":"CA","category_code":"software","zip_code":"95070","latitude":37.2808523,"longitude":-122.0031531,"geopoint":{"type":"Point","coordinates":[-122.0031531,37.2808523]}},{"name":"OpVista","total_money_raised":43000000,"country_code":"USA","state_code":"CA","category_code":"software","zip_code":"95035","latitude":37.4384108,"longitude":-121.9240273,"geopoint":{"type":"Point","coordinates":[-121.9240273,37.4384108]}},{"name":"sezmi","total_money_raised":78600000,"country_code":"USA","state_code":"CA","category_code":"games_video","zip_code":"94002","latitude":37.524422,"longitude":-122.265869,"geopoint":{"type":"Point","coordinates":[-122.265869,37.524422]}},{"name":"Actiance","total_money_raised":15600000,"country_code":"USA","state_code":"CA","category_code":"software","zip_code":"94002","latitude":37.524422,"longitude":-122.265869,"geopoint":{"type":"Point","coordinates":[-122.265869,37.524422]}},{"name":"Vyatta","total_money_raised":40800000,"country_code":"USA","state_code":"CA","category_code":"software","zip_code":"94002","latitude":37.524422,"longitude":-122.265869,"geopoint":{"type":"Point","coordinates":[-122.265869,37.524422]}},{"name":"GrandCentral","total_money_raised":4000000,"country_code":"USA","state_code":"CA","category_code":"mobile","zip_code":"94538","latitude":37.465645,"longitude":-121.932202,"geopoint":{"type":"Point","coordinates":[-121.932202,37.465645]}},{"name":"Atrenta","total_money_raised":33000000,"country_code":"USA","state_code":"CA","category_code":"software","zip_code":"95110","latitude":37.371088,"longitude":-121.925355,"geopoint":{"type":"Point","coordinates":[-121.925355,37.371088]}},{"name":"Amobee","total_money_raised":60000000,"country_code":"USA","state_code":"CA","category_code":"advertising","zip_code":"94065","latitude":37.52845,"longitude":-122.263721,"geopoint":{"type":"Point","coordinates":[-122.263721,37.52845]}},{"name":"Kineto Wireless","total_money_raised":42400000,"country_code":"USA","state_code":"CA","category_code":"mobile","zip_code":"95035","latitude":37.405474,"longitude":-121.918248,"geopoint":{"type":"Point","coordinates":[-121.918248,37.405474]}},{"name":"picoChip","total_money_raised":96500000,"country_code":"USA","state_code":"CA","category_code":"software","zip_code":"CA 95110","latitude":37.3709977,"longitude":-121.9235529,"geopoint":{"type":"Point","coordinates":[-121.9235529,37.3709977]}},{"name":"AeroScout","total_money_raised":28000000,"country_code":"USA","state_code":"CA","category_code":"mobile","zip_code":"94065","latitude":37.5353434,"longitude":-122.2558368,"geopoint":{"type":"Point","coordinates":[-122.2558368,37.5353434]}},{"name":"TuneWiki","total_money_raised":10000000,"country_code":"USA","state_code":"CA","category_code":"music","zip_code":"90401","latitude":37.412577,"longitude":-121.916861,"geopoint":{"type":"Point","coordinates":[-121.916861,37.412577]}},{"name":"Yodlee","total_money_raised":124000000,"country_code":"USA","state_code":"CA","category_code":"ecommerce","zip_code":"94065","latitude":37.538603,"longitude":-122.251539,"geopoint":{"type":"Point","coordinates":[-122.251539,37.538603]}},{"name":"Questra","total_money_raised":12500000,"country_code":"USA","state_code":"CA","category_code":"software","zip_code":"94065","latitude":37.5384185,"longitude":-122.252115,"geopoint":{"type":"Point","coordinates":[-122.252115,37.5384185]}},{"name":"cFares","total_money_raised":13600000,"country_code":"USA","state_code":"CA","category_code":"search","zip_code":"94065","latitude":37.5383063,"longitude":-122.2523918,"geopoint":{"type":"Point","coordinates":[-122.2523918,37.5383063]}},{"name":"Clarus Systems","total_money_raised":8330000,"country_code":"USA","state_code":"CA","category_code":"software","zip_code":"94065","latitude":37.5380187,"longitude":-122.2533836,"geopoint":{"type":"Point","coordinates":[-122.2533836,37.5380187]}},{"name":"Mixbook","total_money_raised":11000000,"country_code":"USA","state_code":"CA","category_code":"web","zip_code":"94306-1827","latitude":37.383844,"longitude":-121.918319,"geopoint":{"type":"Point","coordinates":[-121.918319,37.383844]}},{"name":"BlueLithium","total_money_raised":11500000,"country_code":"USA","state_code":"CA","category_code":"advertising","zip_code":"95128","latitude":37.32052,"longitude":-121.948399,"geopoint":{"type":"Point","coordinates":[-121.948399,37.32052]}},{"name":"Bunchball","total_money_raised":12500000,"country_code":"USA","state_code":"CA","category_code":"software","zip_code":"95128","latitude":37.3208403,"longitude":-121.9479223,"geopoint":{"type":"Point","coordinates":[-121.9479223,37.3208403]}},{"name":"Biz360","total_money_raised":13800000,"country_code":"USA","state_code":"CA","category_code":"web","zip_code":"94065","latitude":37.537587,"longitude":-122.255539,"geopoint":{"type":"Point","coordinates":[-122.255539,37.537587]}},{"name":"Ocarina Networks","total_money_raised":20000000,"country_code":"USA","state_code":"CA","category_code":"network_hosting","zip_code":"95110","latitude":37.371056,"longitude":-121.920558,"geopoint":{"type":"Point","coordinates":[-121.920558,37.371056]}},{"name":"Roamware","total_money_raised":14000000,"country_code":"USA","state_code":"CA","category_code":"mobile","zip_code":"95128","latitude":37.317799,"longitude":-121.947497,"geopoint":{"type":"Point","coordinates":[-121.947497,37.317799]}},{"name":"Zume Life","total_money_raised":1700000,"country_code":"USA","state_code":"CA","category_code":"mobile","zip_code":"95110","latitude":37.368878,"longitude":-121.917236,"geopoint":{"type":"Point","coordinates":[-121.917236,37.368878]}},{"name":"Zume Life","total_money_raised":1700000,"country_code":"USA","state_code":"CA","category_code":"mobile","zip_code":"95110","latitude":37.368878,"longitude":-121.917236,"geopoint":{"type":"Point","coordinates":[-121.917236,37.368878]}},{"name":"NextG Networks","total_money_raised":410000000,"country_code":"USA","state_code":"CA","category_code":"mobile","zip_code":"95035","latitude":37.3968078,"longitude":-121.9113633,"geopoint":{"type":"Point","coordinates":[-121.9113633,37.3968078]}},{"name":"Quantum Secure","total_money_raised":3540000,"country_code":"USA","state_code":"CA","category_code":"software","zip_code":"95112","latitude":37.367838,"longitude":-121.915594,"geopoint":{"type":"Point","coordinates":[-121.915594,37.367838]}},{"name":"ConSentry Networks","total_money_raised":46400000,"country_code":"USA","state_code":"CA","category_code":"network_hosting","zip_code":"95035","latitude":37.407311,"longitude":-121.898605,"geopoint":{"type":"Point","coordinates":[-121.898605,37.407311]}},{"name":"Altierre","total_money_raised":60000000,"country_code":"USA","state_code":"CA","category_code":"mobile","zip_code":"95131","latitude":37.3968262,"longitude":-121.8957166,"geopoint":{"type":"Point","coordinates":[-121.8957166,37.3968262]}},{"name":"Azalea Networks","total_money_raised":15000000,"country_code":"USA","state_code":"CA","category_code":"network_hosting","zip_code":"95035","latitude":37.423135,"longitude":-121.894792,"geopoint":{"type":"Point","coordinates":[-121.894792,37.423135]}},{"name":"Mobifusion","total_money_raised":3100000,"country_code":"USA","state_code":"CA","category_code":"mobile","zip_code":"94085","latitude":37.552104,"longitude":-121.9780378,"geopoint":{"type":"Point","coordinates":[-121.9780378,37.552104]}},{"name":"Aperto Networks","total_money_raised":158000000,"country_code":"USA","state_code":"CA","category_code":"mobile","zip_code":"95035","latitude":37.416183,"longitude":-121.890252,"geopoint":{"type":"Point","coordinates":[-121.890252,37.416183]}},{"name":"HipLogic","total_money_raised":11500000,"country_code":"USA","state_code":"CA","category_code":"mobile","zip_code":"94538","latitude":37.5541073,"longitude":-121.9756765,"geopoint":{"type":"Point","coordinates":[-121.9756765,37.5541073]}},{"name":"Casabi","total_money_raised":12800000,"country_code":"USA","state_code":"CA","category_code":"mobile","zip_code":"95008","latitude":37.293687,"longitude":-121.934573,"geopoint":{"type":"Point","coordinates":[-121.934573,37.293687]}},{"name":"Sylantro","total_money_raised":70500000,"country_code":"USA","state_code":"CA","category_code":"web","zip_code":"95008","latitude":37.293687,"longitude":-121.934573,"geopoint":{"type":"Point","coordinates":[-121.934573,37.293687]}},{"name":"Epocrates","total_money_raised":35000000,"country_code":"USA","state_code":"CA","category_code":"software","zip_code":"94403","latitude":37.544987,"longitude":-122.291394,"geopoint":{"type":"Point","coordinates":[-122.291394,37.544987]}},{"name":"Zuora","total_money_raised":128000000,"country_code":"USA","state_code":"CA","category_code":"software","zip_code":"94404","latitude":37.5596277,"longitude":-122.2709868,"geopoint":{"type":"Point","coordinates":[-122.2709868,37.5596277]}},{"name":"Deem","total_money_raised":467000000,"country_code":"USA","state_code":"CA","category_code":"ecommerce","zip_code":"94105","latitude":37.559836,"longitude":-122.271532,"geopoint":{"type":"Point","coordinates":[-122.271532,37.559836]}},{"name":"Synchronica","total_money_raised":17600000,"country_code":"USA","state_code":"CA","category_code":"mobile","zip_code":"95008","latitude":37.275604,"longitude":-121.952034,"geopoint":{"type":"Point","coordinates":[-121.952034,37.275604]}},{"name":"Synchronica","total_money_raised":17600000,"country_code":"USA","state_code":"CA","category_code":"mobile","zip_code":"95008","latitude":37.275604,"longitude":-121.952034,"geopoint":{"type":"Point","coordinates":[-121.952034,37.275604]}},{"name":"Etology","total_money_raised":4000000,"country_code":"USA","state_code":"CA","category_code":"web","zip_code":"94404","latitude":37.561111,"longitude":-122.270487,"geopoint":{"type":"Point","coordinates":[-122.270487,37.561111]}},{"name":"Vocera Communications","total_money_raised":7630000,"country_code":"USA","state_code":"CA","category_code":"mobile","zip_code":"95126","latitude":37.3190224,"longitude":-121.911101,"geopoint":{"type":"Point","coordinates":[-121.911101,37.3190224]}},{"name":"Space-Time Insight","total_money_raised":42000000,"country_code":"USA","state_code":"CA","category_code":"software","zip_code":"94404","latitude":37.555773,"longitude":-122.27977,"geopoint":{"type":"Point","coordinates":[-122.27977,37.555773]}},{"name":"eBay","total_money_raised":6700000,"country_code":"USA","state_code":"CA","category_code":"web","zip_code":"95125","latitude":37.295005,"longitude":-121.930035,"geopoint":{"type":"Point","coordinates":[-121.930035,37.295005]}},{"name":"Satmetrix","total_money_raised":1000000,"country_code":"USA","state_code":"CA","category_code":"software","zip_code":"94403","latitude":37.55818,"longitude":-122.276454,"geopoint":{"type":"Point","coordinates":[-122.276454,37.55818]}},{"name":"Hightail","total_money_raised":82700000,"country_code":"USA","state_code":"CA","category_code":"network_hosting","zip_code":"95008","latitude":37.288974,"longitude":-121.935688,"geopoint":{"type":"Point","coordinates":[-121.935688,37.288974]}},{"name":"VisualOn","total_money_raised":3100000,"country_code":"USA","state_code":"CA","category_code":"software","zip_code":"95051","latitude":37.270518,"longitude":-121.955879,"geopoint":{"type":"Point","coordinates":[-121.955879,37.270518]}},{"name":"Black Duck Software","total_money_raised":50500000,"country_code":"USA","state_code":"CA","category_code":"software","zip_code":"94404","latitude":37.556152,"longitude":-122.281484,"geopoint":{"type":"Point","coordinates":[-122.281484,37.556152]}},{"name":"Star Analytics","total_money_raised":3500000,"country_code":"USA","state_code":"CA","category_code":"software","zip_code":"94404","latitude":37.556152,"longitude":-122.281484,"geopoint":{"type":"Point","coordinates":[-122.281484,37.556152]}},{"name":"clipsync","total_money_raised":1510000,"country_code":"USA","state_code":"CA","category_code":"web","zip_code":"94111","latitude":37.2906027,"longitude":-121.9317853,"geopoint":{"type":"Point","coordinates":[-121.9317853,37.2906027]}},{"name":"Cenzic","total_money_raised":16000000,"country_code":"USA","state_code":"CA","category_code":"software","zip_code":"95008","latitude":37.2816136,"longitude":-121.9410679,"geopoint":{"type":"Point","coordinates":[-121.9410679,37.2816136]}},{"name":"ONStor","total_money_raised":65800000,"country_code":"USA","state_code":"CA","category_code":"network_hosting","zip_code":"95008","latitude":37.2690782,"longitude":-121.9559995,"geopoint":{"type":"Point","coordinates":[-121.9559995,37.2690782]}},{"name":"Coremetrics","total_money_raised":91000000,"country_code":"USA","state_code":"CA","category_code":"advertising","zip_code":"94404","latitude":37.55873,"longitude":-122.27992,"geopoint":{"type":"Point","coordinates":[-122.27992,37.55873]}},{"name":"SkyData Systems","total_money_raised":4000000,"country_code":"USA","state_code":"CA","category_code":"mobile","zip_code":"94404","latitude":37.55873,"longitude":-122.27992,"geopoint":{"type":"Point","coordinates":[-122.27992,37.55873]}},{"name":"Servo Software","total_money_raised":3010000,"country_code":"USA","state_code":"CA","category_code":"software","zip_code":"94403","latitude":37.552262,"longitude":-122.292146,"geopoint":{"type":"Point","coordinates":[-122.292146,37.552262]}},{"name":"DeciZium","total_money_raised":1500000,"country_code":"USA","state_code":"CA","category_code":"web","zip_code":"95113","latitude":37.337756,"longitude":-121.89435,"geopoint":{"type":"Point","coordinates":[-121.89435,37.337756]}},{"name":"Jigsaw","total_money_raised":18000000,"country_code":"USA","state_code":"CA","category_code":"web","zip_code":"94404","latitude":37.552806,"longitude":-122.291602,"geopoint":{"type":"Point","coordinates":[-122.291602,37.552806]}},{"name":"Conviva","total_money_raised":59000000,"country_code":"USA","state_code":"CA","category_code":"software","zip_code":"94403","latitude":37.552806,"longitude":-122.2916021,"geopoint":{"type":"Point","coordinates":[-122.2916021,37.552806]}},{"name":"Exalt Communications","total_money_raised":15000000,"country_code":"USA","state_code":"CA","category_code":"mobile","zip_code":"95008","latitude":37.2628816,"longitude":-121.9602134,"geopoint":{"type":"Point","coordinates":[-121.9602134,37.2628816]}},{"name":"Firetide","total_money_raised":39800000,"country_code":"USA","state_code":"CA","category_code":"mobile","zip_code":"95008","latitude":37.285133,"longitude":-121.932962,"geopoint":{"type":"Point","coordinates":[-121.932962,37.285133]}},{"name":"SimplyBox","total_money_raised":1300000,"country_code":"USA","state_code":"CA","category_code":"software","zip_code":"95008","latitude":37.285154,"longitude":-121.932882,"geopoint":{"type":"Point","coordinates":[-121.932882,37.285154]}},{"name":"M-Factor","total_money_raised":10100000,"country_code":"USA","state_code":"CA","category_code":"software","zip_code":"94404","latitude":37.555962,"longitude":-122.288006,"geopoint":{"type":"Point","coordinates":[-122.288006,37.555962]}},{"name":"Jivox","total_money_raised":25600000,"country_code":"USA","state_code":"CA","category_code":"advertising","zip_code":"94065","latitude":37.555962,"longitude":-122.288006,"geopoint":{"type":"Point","coordinates":[-122.288006,37.555962]}},{"name":"SpeedDate","total_money_raised":11600000,"country_code":"USA","state_code":"CA","category_code":"web","zip_code":"94404","latitude":37.557637,"longitude":-122.285714,"geopoint":{"type":"Point","coordinates":[-122.285714,37.557637]}},{"name":"FusionOne","total_money_raised":6000000,"country_code":"USA","state_code":"CA","category_code":"mobile","zip_code":"95113","latitude":37.333439,"longitude":-121.895286,"geopoint":{"type":"Point","coordinates":[-121.895286,37.333439]}},{"name":"Fortify Software","total_money_raised":10000000,"country_code":"USA","state_code":"CA","category_code":"software","zip_code":"94404","latitude":37.560781,"longitude":-122.284114,"geopoint":{"type":"Point","coordinates":[-122.284114,37.560781]}},{"name":"Right90","total_money_raised":22000000,"country_code":"USA","state_code":"CA","category_code":"software","zip_code":"94404","latitude":37.571318,"longitude":-122.267962,"geopoint":{"type":"Point","coordinates":[-122.267962,37.571318]}},{"name":"Forterra Systems","total_money_raised":1200000,"country_code":"USA","state_code":"CA","category_code":"games_video","zip_code":"94404","latitude":37.561576,"longitude":-122.284173,"geopoint":{"type":"Point","coordinates":[-122.284173,37.561576]}},{"name":"TextDigger","total_money_raised":4300000,"country_code":"USA","state_code":"CA","category_code":"search","zip_code":"95113","latitude":37.336055,"longitude":-121.890059,"geopoint":{"type":"Point","coordinates":[-121.890059,37.336055]}},{"name":"Netflix","total_money_raised":230000000,"country_code":"USA","state_code":"CA","category_code":"games_video","zip_code":"95032","latitude":37.25142,"longitude":-121.968687,"geopoint":{"type":"Point","coordinates":[-121.968687,37.25142]}},{"name":"Siperian","total_money_raised":25000000,"country_code":"USA","state_code":"CA","category_code":"software","zip_code":"94404","latitude":37.569181,"longitude":-122.276512,"geopoint":{"type":"Point","coordinates":[-122.276512,37.569181]}},{"name":"TalkPlus","total_money_raised":5500000,"country_code":"USA","state_code":"CA","category_code":"web","zip_code":"94402","latitude":37.553743,"longitude":-122.300246,"geopoint":{"type":"Point","coordinates":[-122.300246,37.553743]}},{"name":"Broadchoice","total_money_raised":2700000,"country_code":"USA","state_code":"CA","category_code":"software","zip_code":"94402","latitude":37.553743,"longitude":-122.300246,"geopoint":{"type":"Point","coordinates":[-122.300246,37.553743]}},{"name":"Mixercast","total_money_raised":12700000,"country_code":"USA","state_code":"CA","category_code":"web","zip_code":"94402","latitude":37.553743,"longitude":-122.300246,"geopoint":{"type":"Point","coordinates":[-122.300246,37.553743]}},{"name":"Veodia","total_money_raised":8300000,"country_code":"USA","state_code":"CA","category_code":"games_video","zip_code":"94402","latitude":37.553743,"longitude":-122.300246,"geopoint":{"type":"Point","coordinates":[-122.300246,37.553743]}},{"name":"fabrik","total_money_raised":51300000,"country_code":"USA","state_code":"CA","category_code":"network_hosting","zip_code":"94402","latitude":37.553743,"longitude":-122.300246,"geopoint":{"type":"Point","coordinates":[-122.300246,37.553743]}},{"name":"SugarSync","total_money_raised":61000000,"country_code":"USA","state_code":"CA","category_code":"web","zip_code":"94404","latitude":37.54763,"longitude":-122.307887,"geopoint":{"type":"Point","coordinates":[-122.307887,37.54763]}},{"name":"Zvents","total_money_raised":31200000,"country_code":"USA","state_code":"CA","category_code":"web","zip_code":null,"latitude":37.553121,"longitude":-122.301534,"geopoint":{"type":"Point","coordinates":[-122.301534,37.553121]}},{"name":"Frengo","total_money_raised":8000000,"country_code":"USA","state_code":"CA","category_code":"web","zip_code":"94402","latitude":37.553121,"longitude":-122.301534,"geopoint":{"type":"Point","coordinates":[-122.301534,37.553121]}},{"name":"Sonim Technologies","total_money_raised":42600000,"country_code":"USA","state_code":"CA","category_code":"mobile","zip_code":"94402","latitude":37.553121,"longitude":-122.301534,"geopoint":{"type":"Point","coordinates":[-122.301534,37.553121]}},{"name":"Websense","total_money_raised":18000000,"country_code":"USA","state_code":"CA","category_code":"software","zip_code":"95032","latitude":37.2485689,"longitude":-121.9665699,"geopoint":{"type":"Point","coordinates":[-121.9665699,37.2485689]}},{"name":"B-hive Networks","total_money_raised":7500000,"country_code":"USA","state_code":"CA","category_code":"software","zip_code":"94403","latitude":37.536402,"longitude":-122.325129,"geopoint":{"type":"Point","coordinates":[-122.325129,37.536402]}},{"name":"Picateers","total_money_raised":12100000,"country_code":"USA","state_code":"CA","category_code":"web","zip_code":"94402","latitude":37.5574,"longitude":-122.301914,"geopoint":{"type":"Point","coordinates":[-122.301914,37.5574]}},{"name":"Picateers","total_money_raised":12100000,"country_code":"USA","state_code":"CA","category_code":"web","zip_code":"94402","latitude":37.5574,"longitude":-122.301914,"geopoint":{"type":"Point","coordinates":[-122.301914,37.5574]}},{"name":"Marketo","total_money_raised":108000000,"country_code":"USA","state_code":"CA","category_code":"software","zip_code":"94404","latitude":37.5583,"longitude":-122.301385,"geopoint":{"type":"Point","coordinates":[-122.301385,37.5583]}},{"name":"Untangle","total_money_raised":33200000,"country_code":"USA","state_code":"CA","category_code":"software","zip_code":"94086","latitude":37.5374322,"longitude":-122.3262074,"geopoint":{"type":"Point","coordinates":[-122.3262074,37.5374322]}},{"name":"Yield Software","total_money_raised":6000000,"country_code":"USA","state_code":"CA","category_code":"advertising","zip_code":"94402","latitude":37.558245,"longitude":-122.302654,"geopoint":{"type":"Point","coordinates":[-122.302654,37.558245]}},{"name":"Clarizen","total_money_raised":56000000,"country_code":"USA","state_code":"CA","category_code":"software","zip_code":"94403","latitude":37.536044,"longitude":-122.328401,"geopoint":{"type":"Point","coordinates":[-122.328401,37.536044]}},{"name":"Spoke","total_money_raised":25100000,"country_code":"USA","state_code":"CA","category_code":"software","zip_code":"94402","latitude":37.559287,"longitude":-122.302262,"geopoint":{"type":"Point","coordinates":[-122.302262,37.559287]}},{"name":"Wize","total_money_raised":4990000,"country_code":"USA","state_code":"CA","category_code":"ecommerce","zip_code":"94010","latitude":37.559287,"longitude":-122.302262,"geopoint":{"type":"Point","coordinates":[-122.302262,37.559287]}},{"name":"Sentrigo","total_money_raised":9500000,"country_code":"USA","state_code":"CA","category_code":"software","zip_code":"95054","latitude":37.55911,"longitude":-122.303493,"geopoint":{"type":"Point","coordinates":[-122.303493,37.55911]}},{"name":"Wellsphere","total_money_raised":3000000,"country_code":"USA","state_code":"CA","category_code":"web","zip_code":"94402","latitude":37.55153,"longitude":-122.314072,"geopoint":{"type":"Point","coordinates":[-122.314072,37.55153]}},{"name":"BlackArrow","total_money_raised":59800000,"country_code":"USA","state_code":"CA","category_code":"advertising","zip_code":"95110","latitude":37.549475,"longitude":-122.316982,"geopoint":{"type":"Point","coordinates":[-122.316982,37.549475]}},{"name":"Sharetivity","total_money_raised":2000000,"country_code":"USA","state_code":"CA","category_code":"web","zip_code":"94303","latitude":37.550954,"longitude":-122.315396,"geopoint":{"type":"Point","coordinates":[-122.315396,37.550954]}},{"name":"Gridstone Research","total_money_raised":10000000,"country_code":"USA","state_code":"CA","category_code":"software","zip_code":"94403","latitude":37.54588,"longitude":-122.321354,"geopoint":{"type":"Point","coordinates":[-122.321354,37.54588]}},{"name":"Akimbo","total_money_raised":35700000,"country_code":"USA","state_code":"CA","category_code":"games_video","zip_code":"94402","latitude":37.548482,"longitude":-122.320534,"geopoint":{"type":"Point","coordinates":[-122.320534,37.548482]}},{"name":"Interface21","total_money_raised":10000000,"country_code":"USA","state_code":"CA","category_code":"software","zip_code":"94402","latitude":37.548482,"longitude":-122.320534,"geopoint":{"type":"Point","coordinates":[-122.320534,37.548482]}},{"name":"Tribe","total_money_raised":3050000,"country_code":"USA","state_code":"CA","category_code":"web","zip_code":"95032","latitude":37.2399312,"longitude":-121.9609305,"geopoint":{"type":"Point","coordinates":[-121.9609305,37.2399312]}},{"name":"Siri","total_money_raised":24000000,"country_code":"USA","state_code":"CA","category_code":"software","zip_code":"","latitude":37.320052,"longitude":-121.877636,"geopoint":{"type":"Point","coordinates":[-121.877636,37.320052]}},{"name":"ImageShack","total_money_raised":10000000,"country_code":"USA","state_code":"CA","category_code":"network_hosting","zip_code":"95030","latitude":37.226709,"longitude":-121.98147,"geopoint":{"type":"Point","coordinates":[-121.98147,37.226709]}},{"name":"isocket","total_money_raised":10100000,"country_code":"USA","state_code":"CA","category_code":"advertising","zip_code":"94010","latitude":37.55909,"longitude":-122.321836,"geopoint":{"type":"Point","coordinates":[-122.321836,37.55909]}},{"name":"Respectance","total_money_raised":1750000,"country_code":"USA","state_code":"CA","category_code":"web","zip_code":"","latitude":37.55909,"longitude":-122.321836,"geopoint":{"type":"Point","coordinates":[-122.321836,37.55909]}},{"name":"Evostor","total_money_raised":8000000,"country_code":"USA","state_code":"CA","category_code":"software","zip_code":"95008","latitude":37.232902,"longitude":-121.964385,"geopoint":{"type":"Point","coordinates":[-121.964385,37.232902]}},{"name":"Codefast","total_money_raised":6500000,"country_code":"USA","state_code":"CA","category_code":"software","zip_code":"","latitude":37.316466,"longitude":-121.873881,"geopoint":{"type":"Point","coordinates":[-121.873881,37.316466]}},{"name":"Tapatap","total_money_raised":2500000,"country_code":"USA","state_code":"CA","category_code":"mobile","zip_code":"94402","latitude":37.561589,"longitude":-122.324571,"geopoint":{"type":"Point","coordinates":[-122.324571,37.561589]}},{"name":"Conduit","total_money_raised":110000000,"country_code":"USA","state_code":"CA","category_code":"advertising","zip_code":"94404","latitude":37.561877,"longitude":-122.325248,"geopoint":{"type":"Point","coordinates":[-122.325248,37.561877]}},{"name":"Teracent","total_money_raised":5800000,"country_code":"USA","state_code":"CA","category_code":"advertising","zip_code":"94402","latitude":37.561877,"longitude":-122.325248,"geopoint":{"type":"Point","coordinates":[-122.325248,37.561877]}},{"name":"Inneractive","total_money_raised":8500000,"country_code":"USA","state_code":"CA","category_code":"advertising","zip_code":"94401-4046","latitude":37.5646055,"longitude":-122.3229235,"geopoint":{"type":"Point","coordinates":[-122.3229235,37.5646055]}},{"name":"AdMob","total_money_raised":46800000,"country_code":"USA","state_code":"CA","category_code":"advertising","zip_code":"94043","latitude":37.563585,"longitude":-122.324621,"geopoint":{"type":"Point","coordinates":[-122.324621,37.563585]}},{"name":"Xumii","total_money_raised":12800000,"country_code":"USA","state_code":"CA","category_code":"mobile","zip_code":"94401","latitude":37.563585,"longitude":-122.324621,"geopoint":{"type":"Point","coordinates":[-122.324621,37.563585]}},{"name":"bluepulse","total_money_raised":6000000,"country_code":"USA","state_code":"CA","category_code":"network_hosting","zip_code":"94401","latitude":37.563905,"longitude":-122.324688,"geopoint":{"type":"Point","coordinates":[-122.324688,37.563905]}},{"name":"Apture","total_money_raised":4600000,"country_code":"USA","state_code":"CA","category_code":"web","zip_code":"94107","latitude":37.566042,"longitude":-122.322954,"geopoint":{"type":"Point","coordinates":[-122.322954,37.566042]}},{"name":"Smalltown","total_money_raised":4000000,"country_code":"USA","state_code":"CA","category_code":"web","zip_code":"94401","latitude":37.566123,"longitude":-122.323045,"geopoint":{"type":"Point","coordinates":[-122.323045,37.566123]}},{"name":"Skydeck","total_money_raised":4000000,"country_code":"USA","state_code":"CA","category_code":"mobile","zip_code":"94301","latitude":37.5645375,"longitude":-122.3254705,"geopoint":{"type":"Point","coordinates":[-122.3254705,37.5645375]}},{"name":"Fixya","total_money_raised":8000000,"country_code":"USA","state_code":"CA","category_code":"web","zip_code":"94401","latitude":37.566879,"longitude":-122.323895,"geopoint":{"type":"Point","coordinates":[-122.323895,37.566879]}},{"name":"DealBase Corporation","total_money_raised":1000000,"country_code":"USA","state_code":"CA","category_code":"web","zip_code":"90266","latitude":37.5758867,"longitude":-122.3277578,"geopoint":{"type":"Point","coordinates":[-122.3277578,37.5758867]}},{"name":"Limbo","total_money_raised":27100000,"country_code":"USA","state_code":"CA","category_code":"mobile","zip_code":"94010","latitude":37.580304,"longitude":-122.343679,"geopoint":{"type":"Point","coordinates":[-122.343679,37.580304]}},{"name":"MeeVee","total_money_raised":25000000,"country_code":"USA","state_code":"CA","category_code":"games_video","zip_code":"94010","latitude":37.590339,"longitude":-122.341715,"geopoint":{"type":"Point","coordinates":[-122.341715,37.590339]}},{"name":"BitGravity","total_money_raised":2500000,"country_code":"USA","state_code":"CA","category_code":"network_hosting","zip_code":"94010","latitude":37.590056,"longitude":-122.347654,"geopoint":{"type":"Point","coordinates":[-122.347654,37.590056]}},{"name":"ScanCafe","total_money_raised":4000000,"country_code":"USA","state_code":"CA","category_code":"web","zip_code":"94010","latitude":37.592584,"longitude":-122.369676,"geopoint":{"type":"Point","coordinates":[-122.369676,37.592584]}},{"name":"Echopass Corporation","total_money_raised":9000000,"country_code":"USA","state_code":"CA","category_code":"network_hosting","zip_code":"94566","latitude":37.661002,"longitude":-121.897829,"geopoint":{"type":"Point","coordinates":[-121.897829,37.661002]}},{"name":"F-Origin","total_money_raised":12500000,"country_code":"USA","state_code":"CA","category_code":"software","zip_code":"94566","latitude":37.666359,"longitude":-121.884589,"geopoint":{"type":"Point","coordinates":[-121.884589,37.666359]}},{"name":"PaymentOne","total_money_raised":7000000,"country_code":"USA","state_code":"CA","category_code":"ecommerce","zip_code":"95138","latitude":37.248043,"longitude":-121.776935,"geopoint":{"type":"Point","coordinates":[-121.776935,37.248043]}},{"name":"spigit","total_money_raised":55600000,"country_code":"USA","state_code":"CA","category_code":"software","zip_code":"94566","latitude":37.6637279,"longitude":-121.8731805,"geopoint":{"type":"Point","coordinates":[-121.8731805,37.6637279]}},{"name":"Qumu","total_money_raised":24800000,"country_code":"USA","state_code":"CA","category_code":"software","zip_code":"94066","latitude":37.630551,"longitude":-122.422113,"geopoint":{"type":"Point","coordinates":[-122.422113,37.630551]}},{"name":"Devicescape","total_money_raised":18700000,"country_code":"USA","state_code":"CA","category_code":"mobile","zip_code":"94066","latitude":37.628518,"longitude":-122.424607,"geopoint":{"type":"Point","coordinates":[-122.424607,37.628518]}},{"name":"Adify","total_money_raised":27000000,"country_code":"USA","state_code":"CA","category_code":"advertising","zip_code":"94066","latitude":37.629393,"longitude":-122.424975,"geopoint":{"type":"Point","coordinates":[-122.424975,37.629393]}},{"name":"YouTube","total_money_raised":11500000,"country_code":"USA","state_code":"CA","category_code":"games_video","zip_code":"94066","latitude":37.627971,"longitude":-122.426804,"geopoint":{"type":"Point","coordinates":[-122.426804,37.627971]}},{"name":"Envivio","total_money_raised":59000000,"country_code":"USA","state_code":"CA","category_code":"software","zip_code":"94080","latitude":37.665469,"longitude":-122.38222,"geopoint":{"type":"Point","coordinates":[-122.38222,37.665469]}},{"name":"RocketOn","total_money_raised":5800000,"country_code":"USA","state_code":"CA","category_code":"web","zip_code":"","latitude":37.65466,"longitude":-122.40788,"geopoint":{"type":"Point","coordinates":[-122.40788,37.65466]}},